b'$GNRMC,173530.00,A,4048.50079,N,07357.73359,W,0.217,,291021,,,D,V*03\r\n'
b'$GNVTG,,T,,M,0.217,N,0.403,K,D*3B\r\n'
b'$GNGGA,173530.00,4048.50079,N,07357.73359,W,2,12,0.98,368.2,M,-34.4,M,,0000*7D\r\n'
b'$GNGSA,A,3,23,44,32,10,12,18,,,,,,,1.65,0.98,1.33,1*08\r\n'
b'$GNGSA,A,3,87,73,65,88,,,,,,,,,1.65,0.98,1.33,2*08\r\n'
b'$GNGSA,A,3,07,13,,,,,,,,,,,1.65,0.98,1.33,3*04\r\n'
b'$GNGSA,A,3,20,23,32,30,,,,,,,,,1.65,0.98,1.33,4*07\r\n'
b'$GPGSV,2,1,07,10,65,320,31,12,12,121,35,18,28,185,40,23,74,099,40,1*68\r\n'
b'$GPGSV,2,2,07,24,54,063,19,32,37,268,39,44,26,235,30,1*59\r\n'
b'$GPGSV,1,1,02,12,12,121,16,23,74,099,14,6*63\r\n'
b'$GPGSV,2,1,06,08,01,300,,21,02,330,,25,05,151,,27,02,272,,0*6C\r\n'
b'$GPGSV,2,2,06,27,02,272,,46,17,246,,0*67\r\n'
b'$GLGSV,2,1,07,65,50,325,27,72,50,050,24,73,17,031,23,75,31,151,27,1*79\r\n'
b'$GLGSV,2,2,07,81,18,328,28,87,22,226,24,88,35,273,27,1*46\r\n'
b'$GLGSV,1,1,03,66,03,285,,71,11,086,,74,47,078,,0*41\r\n'
b'$GAGSV,1,1,01,07,63,299,18,2*4E\r\n'
b'$GAGSV,1,1,02,07,63,299,28,13,30,202,33,7*7A\r\n'
b'$GAGSV,1,1,03,03,04,077,,25,09,035,,33,18,321,,0*41\r\n'
b'$GBGSV,1,1,04,20,15,293,32,23,48,140,40,30,19,257,33,32,65,326,20,1*7D\r\n'
b'$GNGLL,4048.50079,N,07357.73359,W,173530.00,A,D*6D\r\n'
b'$GNRMC,173531.00,A,4048.50126,N,07357.73294,W,0.177,,291021,,,D,V*0C\r\n'
b'$GNVTG,,T,,M,0.177,N,0.328,K,D*30\r\n'
b'$GNGGA,173531.00,4048.50126,N,07357.73294,W,2,12,0.98,365.6,M,-34.4,M,,0000*7E\r\n'
b'$GNGSA,A,3,23,44,32,10,12,18,,,,,,,1.65,0.98,1.33,1*08\r\n'
b'$GNGSA,A,3,87,73,65,88,,,,,,,,,1.65,0.98,1.33,2*08\r\n'
b'$GNGSA,A,3,07,13,,,,,,,,,,,1.65,0.98,1.33,3*04\r\n'
b'$GNGSA,A,3,20,23,32,30,,,,,,,,,1.65,0.98,1.33,4*07\r\n'
b'$GPGSV,2,1,07,10,65,320,30,12,12,121,34,18,28,185,38,23,74,099,39,1*69\r\n'
b'$GPGSV,2,2,07,24,54,063,19,32,37,268,38,44,26,235,29,1*50\r\n'
b'$GPGSV,1,1,02,12,12,121,15,23,74,099,12,6*66\r\n'
b'$GPGSV,2,1,06,08,01,300,,21,02,330,,25,05,151,,27,02,272,,0*6C\r\n'
b'$GPGSV,2,2,06,27,02,272,,46,17,246,,0*67\r\n'
b'$GLGSV,2,1,07,65,50,325,27,72,50,050,21,73,17,031,23,75,31,151,28,1*73\r\n'
b'$GLGSV,2,2,07,81,18,328,28,87,22,226,23,88,35,273,26,1*40\r\n'
b'$GLGSV,1,1,03,66,03,285,,71,11,086,,74,47,078,,0*41\r\n'
b'$GAGSV,1,1,01,07,63,299,18,2*4E\r\n'
b'$GAGSV,1,1,02,07,63,299,28,13,30,202,33,7*7A\r\n'
b'$GAGSV,1,1,03,03,04,077,,25,09,035,,33,18,321,,0*41\r\n'
b'$GBGSV,1,1,04,20,15,293,32,23,48,140,39,30,19,257,33,32,65,326,20,1*73\r\n'
b'$GNGLL,4048.50126,N,07357.73294,W,173531.00,A,D*67\r\n'
b'$GNRMC,173532.00,A,4048.50172,N,07357.73232,W,0.202,,291021,,,D,V*03\r\n'
b'$GNVTG,,T,,M,0.202,N,0.374,K,D*38\r\n'
b'$GNGGA,173532.00,4048.50172,N,07357.73232,W,2,12,0.99,363.2,M,-34.4,M,,0000*73\r\n'
b'$GNGSA,A,3,23,44,32,10,12,18,,,,,,,1.68,0.99,1.36,1*01\r\n'
b'$GNGSA,A,3,87,73,65,88,,,,,,,,,1.68,0.99,1.36,2*01\r\n'
b'$GNGSA,A,3,07,13,,,,,,,,,,,1.68,0.99,1.36,3*0D\r\n'
b'$GNGSA,A,3,20,23,32,30,,,,,,,,,1.68,0.99,1.36,4*0E\r\n'
b'$GPGSV,2,1,07,10,65,320,30,12,12,121,34,18,28,185,38,23,74,099,39,1*69\r\n'
b'$GPGSV,2,2,07,24,54,063,16,32,37,268,38,44,26,235,29,1*5F\r\n'
b'$GPGSV,1,1,02,12,12,121,16,23,74,099,11,6*66\r\n'
b'$GPGSV,2,1,06,08,01,300,,21,02,329,,25,05,151,,27,02,272,,0*64\r\n'
b'$GPGSV,2,2,06,27,02,272,,46,17,246,,0*67\r\n'
b'$GLGSV,2,1,07,65,50,325,27,72,50,050,20,73,17,031,23,75,31,151,28,1*72\r\n'
b'$GLGSV,2,2,07,81,18,328,28,87,22,226,22,88,35,273,26,1*41\r\n'
b'$GLGSV,1,1,03,66,03,285,,71,11,086,,74,47,078,,0*41\r\n'
b'$GAGSV,1,1,01,07,63,299,18,2*4E\r\n'
b'$GAGSV,1,1,02,07,63,299,27,13,30,202,33,7*75\r\n'
b'$GAGSV,1,1,03,03,04,077,,25,09,035,,33,18,321,,0*41\r\n'
b'$GBGSV,1,1,04,20,15,293,32,23,48,140,39,30,19,257,33,32,65,326,21,1*72\r\n'
b'$GNGLL,4048.50172,N,07357.73232,W,173532.00,A,D*69\r\n'
b'$GNRMC,173533.00,A,4048.50207,N,07357.73186,W,0.231,,291021,,,D,V*0F\r\n'
b'$GNVTG,,T,,M,0.231,N,0.428,K,D*36\r\n'
b'$GNGGA,173533.00,4048.50207,N,07357.73186,W,2,12,0.99,361.3,M,-34.4,M,,0000*7C\r\n'
b'$GNGSA,A,3,23,44,32,10,12,18,,,,,,,1.68,0.99,1.36,1*01\r\n'
b'$GNGSA,A,3,87,73,65,88,,,,,,,,,1.68,0.99,1.36,2*01\r\n'
b'$GNGSA,A,3,07,13,,,,,,,,,,,1.68,0.99,1.36,3*0D\r\n'
b'$GNGSA,A,3,20,23,32,30,,,,,,,,,1.68,0.99,1.36,4*0E\r\n'
b'$GPGSV,2,1,07,10,65,320,29,12,12,121,33,18,28,185,38,23,74,099,39,1*66\r\n'
b'$GPGSV,2,2,07,24,54,063,14,32,37,268,38,44,26,235,29,1*5D\r\n'
b'$GPGSV,1,1,02,12,12,121,15,23,74,099,09,6*6C\r\n'
b'$GPGSV,2,1,06,08,01,300,,21,02,329,,25,05,151,,27,02,272,,0*64\r\n'
b'$GPGSV,2,2,06,27,02,272,,46,17,246,,0*67\r\n'
b'$GLGSV,2,1,07,65,50,325,25,72,50,050,18,73,17,031,22,75,31,151,28,1*7A\r\n'
b'$GLGSV,2,2,07,81,18,328,28,87,22,226,22,88,35,273,25,1*42\r\n'
b'$GLGSV,1,1,03,66,03,285,,71,11,086,,74,47,078,,0*41\r\n'
b'$GAGSV,1,1,01,07,63,299,17,2*41\r\n'
b'$GAGSV,1,1,02,07,63,299,24,13,30,202,32,7*77\r\n'
b'$GAGSV,1,1,03,03,04,077,,25,09,035,,33,18,321,,0*41\r\n'
b'$GBGSV,1,1,04,20,15,293,32,23,48,140,39,30,19,257,33,32,65,326,22,1*71\r\n'
b'$GNGLL,4048.50207,N,07357.73186,W,173533.00,A,D*65\r\n'
b'$GNRMC,173534.00,A,4048.50237,N,07357.73146,W,0.120,,291021,,,D,V*04\r\n'
b'$GNVTG,,T,,M,0.120,N,0.222,K,D*39\r\n'
b'$GNGGA,173534.00,4048.50237,N,07357.73146,W,2,12,1.00,359.6,M,-34.4,M,,0000*7B\r\n'
b'$GNGSA,A,3,23,44,32,10,12,18,,,,,,,1.69,1.00,1.36,1*01\r\n'
b'$GNGSA,A,3,87,73,65,,,,,,,,,,1.69,1.00,1.36,2*01\r\n'
b'$GNGSA,A,3,07,13,,,,,,,,,,,1.69,1.00,1.36,3*0D\r\n'
b'$GNGSA,A,3,20,23,32,30,,,,,,,,,1.69,1.00,1.36,4*0E\r\n'
b'$GPGSV,2,1,07,10,65,320,28,12,12,121,33,18,28,185,38,23,74,100,39,1*66\r\n'
b'$GPGSV,2,2,07,24,54,063,12,32,37,268,38,44,26,235,29,1*5B\r\n'
b'$GPGSV,1,1,02,12,12,121,14,23,74,100,13,6*67\r\n'
b'$GPGSV,2,1,06,08,01,300,,21,02,329,,25,05,151,,27,02,272,,0*64\r\n'
b'$GPGSV,2,2,06,27,02,272,,46,17,246,,0*67\r\n'
b'$GLGSV,2,1,06,65,50,325,23,72,50,050,17,73,17,031,21,75,31,151,28,1*71\r\n'
b'$GLGSV,2,2,06,81,18,328,28,87,22,226,21,1*77\r\n'
b'$GLGSV,1,1,04,66,03,285,,71,11,086,,74,47,078,,88,35,273,,0*76\r\n'
b'$GAGSV,1,1,01,07,63,299,17,2*41\r\n'
b'$GAGSV,1,1,02,07,63,299,22,13,30,202,32,7*71\r\n'
b'$GAGSV,1,1,03,03,04,077,,25,09,035,,33,18,321,,0*41\r\n'
b'$GBGSV,1,1,04,20,15,293,32,23,48,140,39,30,19,257,33,32,65,326,23,1*70\r\n'
b'$GNGLL,4048.50237,N,07357.73146,W,173534.00,A,D*6D\r\n'
b'$GNRMC,173535.00,A,4048.50258,N,07357.73120,W,0.157,,291021,,,D,V*0C\r\n'
b'$GNVTG,,T,,M,0.157,N,0.291,K,D*31\r\n'
b'$GNGGA,173535.00,4048.50258,N,07357.73120,W,2,12,0.99,358.3,M,-34.4,M,,0000*76\r\n'
b'$GNGSA,A,3,23,44,32,10,12,18,,,,,,,1.66,0.99,1.33,1*0A\r\n'
b'$GNGSA,A,3,87,73,65,,,,,,,,,,1.66,0.99,1.33,2*0A\r\n'
b'$GNGSA,A,3,07,13,,,,,,,,,,,1.66,0.99,1.33,3*06\r\n'
b'$GNGSA,A,3,20,23,32,30,,,,,,,,,1.66,0.99,1.33,4*05\r\n'
b'$GPGSV,2,1,07,10,65,320,29,12,12,121,31,18,28,185,37,23,74,100,39,1*6A\r\n'
b'$GPGSV,2,2,07,24,53,062,08,32,37,268,38,44,26,235,28,1*57\r\n'
b'$GPGSV,1,1,01,23,74,100,12,6*52\r\n'
b'$GPGSV,2,1,06,08,01,300,,21,02,329,,25,05,151,,27,02,272,,0*64\r\n'
b'$GPGSV,2,2,06,27,02,272,,46,17,246,,0*67\r\n'
b'$GLGSV,2,1,07,65,50,325,21,72,50,050,14,73,17,031,20,75,31,151,28,1*70\r\n'
b'$GLGSV,2,2,07,81,18,328,27,87,22,226,21,88,35,273,26,1*4D\r\n'
b'$GLGSV,1,1,03,66,03,285,,71,11,086,,74,47,078,,0*41\r\n'
b'$GAGSV,1,1,01,07,63,299,17,2*41\r\n'
b'$GAGSV,1,1,02,07,63,299,23,13,30,202,31,7*73\r\n'
b'$GAGSV,1,1,03,03,04,077,,25,09,035,,33,18,321,,0*41\r\n'
b'$GBGSV,1,1,04,20,15,293,33,23,48,140,39,30,19,257,32,32,65,326,26,1*75\r\n'
b'$GNGLL,4048.50258,N,07357.73120,W,173535.00,A,D*65\r\n'
b'$GNRMC,173536.00,A,4048.50286,N,07357.73087,W,0.146,,291021,,,D,V*00\r\n'
b'$GNVTG,,T,,M,0.146,N,0.270,K,D*3E\r\n'
b'$GNGGA,173536.00,4048.50286,N,07357.73087,W,2,12,0.98,356.7,M,-34.4,M,,0000*71\r\n'
b'$GNGSA,A,3,23,44,32,10,12,18,,,,,,,1.65,0.98,1.33,1*08\r\n'
b'$GNGSA,A,3,87,73,65,88,,,,,,,,,1.65,0.98,1.33,2*08\r\n'
b'$GNGSA,A,3,07,13,,,,,,,,,,,1.65,0.98,1.33,3*04\r\n'
b'$GNGSA,A,3,20,23,32,30,,,,,,,,,1.65,0.98,1.33,4*07\r\n'
b'$GPGSV,2,1,06,10,65,320,29,12,12,121,32,18,28,185,38,23,74,100,39,1*67\r\n'
b'$GPGSV,2,2,06,32,37,268,38,44,26,235,30,1*63\r\n'
b'$GPGSV,1,1,01,23,74,100,14,6*54\r\n'
b'$GPGSV,2,1,07,08,01,300,,21,02,329,,24,53,062,,25,05,151,,0*61\r\n'
b'$GPGSV,2,2,07,25,05,151,,27,02,272,,46,17,246,,0*51\r\n'
b'$GLGSV,2,1,06,65,50,325,21,73,17,031,20,75,31,151,30,81,18,328,27,1*74\r\n'
b'$GLGSV,2,2,06,87,22,226,19,88,35,273,27,1*7A\r\n'
b'$GLGSV,1,1,04,66,03,285,,71,11,086,,72,50,050,,74,47,078,,0*73\r\n'
b'$GAGSV,1,1,01,07,63,299,17,2*41\r\n'
b'$GAGSV,1,1,02,07,63,299,22,13,30,202,31,7*72\r\n'
b'$GAGSV,1,1,03,03,04,077,,25,09,035,,33,18,321,,0*41\r\n'
b'$GBGSV,1,1,04,20,15,293,34,23,48,140,34,30,19,257,32,32,65,326,27,1*7E\r\n'
b'$GNGLL,4048.50286,N,07357.73087,W,173536.00,A,D*69\r\n'
b'$GNRMC,173537.00,A,4048.50311,N,07357.73063,W,0.136,,291021,,,D,V*03\r\n'
b'$GNVTG,,T,,M,0.136,N,0.251,K,D*3A\r\n'
b'$GNGGA,173537.00,4048.50311,N,07357.73063,W,2,12,0.98,355.3,M,-34.4,M,,0000*72\r\n'
b'$GNGSA,A,3,23,44,32,10,12,18,,,,,,,1.65,0.98,1.33,1*08\r\n'
b'$GNGSA,A,3,87,73,65,88,,,,,,,,,1.65,0.98,1.33,2*08\r\n'
b'$GNGSA,A,3,07,13,,,,,,,,,,,1.65,0.98,1.33,3*04\r\n'
b'$GNGSA,A,3,20,23,32,30,,,,,,,,,1.65,0.98,1.33,4*07\r\n'
b'$GPGSV,2,1,06,10,65,320,29,12,12,121,31,18,28,185,38,23,74,100,39,1*64\r\n'
b'$GPGSV,2,2,06,32,37,268,37,44,26,235,30,1*6C\r\n'
b'$GPGSV,1,1,01,23,74,100,15,6*55\r\n'
b'$GPGSV,2,1,07,08,01,300,,21,02,329,,24,53,062,,25,05,151,,0*61\r\n'
b'$GPGSV,2,2,07,25,05,151,,27,02,272,,46,17,246,,0*51\r\n'
b'$GLGSV,2,1,06,65,50,325,22,73,17,031,19,75,31,151,30,81,18,328,27,1*7D\r\n'
b'$GLGSV,2,2,06,87,22,226,16,88,35,273,28,1*7A\r\n'
b'$GLGSV,1,1,04,66,03,285,,71,11,086,,72,50,050,,74,47,078,,0*73\r\n'
b'$GAGSV,1,1,01,07,63,299,16,2*40\r\n'
b'$GAGSV,1,1,02,07,63,299,20,13,30,202,30,7*71\r\n'
b'$GAGSV,1,1,03,03,04,077,,25,09,035,,33,18,321,,0*41\r\n'
b'$GBGSV,1,1,04,20,15,293,35,23,48,140,34,30,19,257,33,32,65,326,28,1*71\r\n'
b'$GNGLL,4048.50311,N,07357.73063,W,173537.00,A,D*6D\r\n'
b'$GNRMC,173538.00,A,4048.50336,N,07357.73037,W,0.167,,291021,,,D,V*0C\r\n'
b'$GNVTG,,T,,M,0.167,N,0.309,K,D*32\r\n'
b'$GNGGA,173538.00,4048.50336,N,07357.73037,W,2,12,0.99,353.8,M,-34.4,M,,0000*75\r\n'
b'$GNGSA,A,3,23,44,32,10,12,18,,,,,,,1.66,0.99,1.33,1*0A\r\n'
b'$GNGSA,A,3,87,73,65,88,,,,,,,,,1.66,0.99,1.33,2*0A\r\n'
b'$GNGSA,A,3,07,13,,,,,,,,,,,1.66,0.99,1.33,3*06\r\n'
b'$GNGSA,A,3,20,23,32,30,,,,,,,,,1.66,0.99,1.33,4*05\r\n'
b'$GPGSV,2,1,06,10,65,320,29,12,12,121,31,18,28,185,37,23,74,100,39,1*6B\r\n'
b'$GPGSV,2,2,06,32,37,268,36,44,26,235,30,1*6D\r\n'
b'$GPGSV,1,1,01,23,74,100,15,6*55\r\n'
b'$GPGSV,2,1,07,08,01,300,,21,02,329,,24,53,062,,25,05,151,,0*61\r\n'
b'$GPGSV,2,2,07,25,05,151,,27,02,272,,46,17,246,,0*51\r\n'
b'$GLGSV,2,1,06,65,50,325,25,73,17,031,19,75,31,151,30,81,18,328,28,1*75\r\n'
b'$GLGSV,2,2,06,87,22,226,14,88,35,273,27,1*77\r\n'
b'$GLGSV,1,1,04,66,03,285,,71,11,086,,72,50,050,,74,47,078,,0*73\r\n'
b'$GAGSV,1,1,01,07,63,299,17,2*41\r\n'
b'$GAGSV,1,1,02,07,63,299,17,13,30,202,30,7*75\r\n'
b'$GAGSV,1,1,03,03,04,077,,25,09,035,,33,18,321,,0*41\r\n'
b'$GBGSV,1,1,04,20,15,293,35,23,48,140,34,30,19,257,32,32,65,326,28,1*70\r\n'
b'$GNGLL,4048.50336,N,07357.73037,W,173538.00,A,D*66\r\n'
b'$GNRMC,173539.00,A,4048.50364,N,07357.73009,W,0.178,,291021,,,D,V*09\r\n'
b'$GNVTG,,T,,M,0.178,N,0.330,K,D*36\r\n'
b'$GNGGA,173539.00,4048.50364,N,07357.73009,W,2,12,0.99,352.4,M,-34.4,M,,0000*73\r\n'
b'$GNGSA,A,3,23,44,32,10,12,18,,,,,,,1.66,0.99,1.33,1*0A\r\n'
b'$GNGSA,A,3,87,73,65,88,,,,,,,,,1.66,0.99,1.33,2*0A\r\n'
b'$GNGSA,A,3,07,13,,,,,,,,,,,1.66,0.99,1.33,3*06\r\n'
b'$GNGSA,A,3,20,23,32,30,,,,,,,,,1.66,0.99,1.33,4*05\r\n'
b'$GPGSV,2,1,06,10,65,320,31,12,12,121,31,18,28,185,37,23,74,100,39,1*62\r\n'
b'$GPGSV,2,2,06,32,37,268,36,44,26,235,30,1*6D\r\n'
b'$GPGSV,1,1,01,23,74,100,15,6*55\r\n'
b'$GPGSV,2,1,07,08,01,300,,21,02,329,,24,53,062,,25,05,151,,0*61\r\n'
b'$GPGSV,2,2,07,25,05,151,,27,02,272,,46,17,246,,0*51\r\n'
b'$GLGSV,2,1,06,65,50,325,26,73,17,031,19,75,31,151,31,81,18,328,28,1*77\r\n'
b'$GLGSV,2,2,06,87,22,226,12,88,35,273,27,1*71\r\n'
b'$GLGSV,1,1,04,66,03,285,,71,11,086,,72,50,050,,74,47,078,,0*73\r\n'
b'$GAGSV,1,1,01,07,63,299,18,2*4E\r\n'
b'$GAGSV,1,1,02,07,63,299,14,13,30,202,30,7*76\r\n'
b'$GAGSV,1,1,03,03,04,077,,25,09,035,,33,18,321,,0*41\r\n'
b'$GBGSV,1,1,04,20,15,293,35,23,48,140,34,30,19,257,33,32,65,326,28,1*71\r\n'
b'$GNGLL,4048.50364,N,07357.73009,W,173539.00,A,D*6D\r\n'
b'$GNRMC,173540.00,A,4048.50392,N,07357.72977,W,0.186,,291021,,,D,V*0E\r\n'
b'$GNVTG,,T,,M,0.186,N,0.344,K,D*34\r\n'
b'$GNGGA,173540.00,4048.50392,N,07357.72977,W,2,12,0.99,351.0,M,-34.4,M,,0000*72\r\n'
b'$GNGSA,A,3,23,44,32,10,12,18,,,,,,,1.66,0.99,1.33,1*0A\r\n'
b'$GNGSA,A,3,73,65,88,,,,,,,,,,1.66,0.99,1.33,2*05\r\n'
b'$GNGSA,A,3,07,13,,,,,,,,,,,1.66,0.99,1.33,3*06\r\n'
b'$GNGSA,A,3,20,23,32,30,,,,,,,,,1.66,0.99,1.33,4*05\r\n'
b'$GPGSV,2,1,06,10,65,320,31,12,12,121,32,18,28,185,37,23,74,100,39,1*61\r\n'
b'$GPGSV,2,2,06,32,37,268,36,44,26,235,30,1*6D\r\n'
b'$GPGSV,1,1,01,23,74,100,14,6*54\r\n'
b'$GPGSV,2,1,07,08,01,300,,21,02,329,,24,53,062,,25,05,151,,0*61\r\n'
b'$GPGSV,2,2,07,25,05,151,,27,02,272,,46,17,246,,0*51\r\n'
b'$GLGSV,2,1,06,65,50,325,28,73,17,031,18,75,31,151,31,81,18,328,28,1*78\r\n'
b'$GLGSV,2,2,06,87,22,226,06,88,35,273,26,1*75\r\n'
b'$GLGSV,1,1,04,66,03,285,,71,11,086,,72,50,050,,74,47,078,,0*73\r\n'
b'$GAGSV,1,1,01,07,63,299,17,2*41\r\n'
b'$GAGSV,1,1,02,07,63,299,09,13,30,202,30,7*7A\r\n'
b'$GAGSV,1,1,03,03,04,077,,25,09,035,,33,18,321,,0*41\r\n'
b'$GBGSV,1,1,04,20,15,293,35,23,48,140,34,30,19,257,33,32,65,326,28,1*71\r\n'
b'$GNGLL,4048.50392,N,07357.72977,W,173540.00,A,D*6B\r\n'
b'$GNRMC,173541.00,A,4048.50428,N,07357.72928,W,0.190,,291021,,,D,V*04\r\n'
b'$GNVTG,,T,,M,0.190,N,0.351,K,D*37\r\n'
b'$GNGGA,173541.00,4048.50428,N,07357.72928,W,2,12,0.95,349.1,M,-34.4,M,,0000*7B\r\n'
b'$GNGSA,A,3,23,44,32,10,12,18,,,,,,,1.64,0.95,1.33,1*04\r\n'
b'$GNGSA,A,3,87,73,65,88,,,,,,,,,1.64,0.95,1.33,2*04\r\n'
b'$GNGSA,A,3,07,13,,,,,,,,,,,1.64,0.95,1.33,3*08\r\n'
b'$GNGSA,A,3,20,23,32,30,,,,,,,,,1.64,0.95,1.33,4*0B\r\n'
b'$GPGSV,2,1,06,10,65,320,34,12,12,121,34,18,28,185,38,23,74,100,39,1*6D\r\n'
b'$GPGSV,2,2,06,32,37,268,36,44,26,235,30,1*6D\r\n'
b'$GPGSV,1,1,01,23,74,100,13,6*53\r\n'
b'$GPGSV,2,1,07,08,01,300,,21,02,329,,24,53,062,,25,05,151,,0*61\r\n'
b'$GPGSV,2,2,07,25,05,151,,27,02,272,,46,17,246,,0*51\r\n'
b'$GLGSV,2,1,06,65,50,325,29,73,17,031,17,75,31,151,30,81,18,328,28,1*77\r\n'
b'$GLGSV,2,2,06,87,22,226,11,88,35,273,25,1*70\r\n'
b'$GLGSV,1,1,04,66,03,285,,71,11,086,,72,50,050,,74,47,078,,0*73\r\n'
b'$GAGSV,1,1,01,07,63,299,17,2*41\r\n'
b'$GAGSV,1,1,02,07,63,299,11,13,30,202,30,7*73\r\n'
b'$GAGSV,1,1,03,03,04,077,,25,09,035,,33,18,321,,0*41\r\n'
b'$GBGSV,1,1,04,20,15,293,35,23,48,140,38,30,19,257,32,32,65,326,28,1*7C\r\n'
b'$GNGLL,4048.50428,N,07357.72928,W,173541.00,A,D*66\r\n'
b'$GNRMC,173542.00,A,4048.50445,N,07357.72899,W,0.212,,291021,,,D,V*0E\r\n'
b'$GNVTG,,T,,M,0.212,N,0.393,K,D*30\r\n'
b'$GNGGA,173542.00,4048.50445,N,07357.72899,W,2,12,0.95,347.8,M,-34.4,M,,0000*7F\r\n'
b'$GNGSA,A,3,23,44,32,10,12,18,,,,,,,1.64,0.95,1.33,1*04\r\n'
b'$GNGSA,A,3,87,73,65,88,,,,,,,,,1.64,0.95,1.33,2*04\r\n'
b'$GNGSA,A,3,07,13,,,,,,,,,,,1.64,0.95,1.33,3*08\r\n'
b'$GNGSA,A,3,20,23,32,30,,,,,,,,,1.64,0.95,1.33,4*0B\r\n'
b'$GPGSV,2,1,06,10,65,320,30,12,12,121,32,18,28,185,38,23,74,100,39,1*6F\r\n'
b'$GPGSV,2,2,06,32,37,269,37,44,26,235,30,1*6D\r\n'
b'$GPGSV,1,1,01,23,74,100,12,6*52\r\n'
b'$GPGSV,2,1,07,08,01,300,,21,02,329,,24,53,062,,25,05,151,,0*61\r\n'
b'$GPGSV,2,2,07,25,05,151,,27,02,272,,46,17,246,,0*51\r\n'
b'$GLGSV,2,1,06,65,50,325,29,73,17,031,17,75,31,151,30,81,18,328,30,1*7E\r\n'
b'$GLGSV,2,2,06,87,22,226,09,88,35,273,22,1*7E\r\n'
b'$GLGSV,1,1,04,66,03,285,,71,11,086,,72,50,050,,74,47,078,,0*73\r\n'
b'$GAGSV,1,1,01,07,63,299,17,2*41\r\n'
b'$GAGSV,1,1,02,07,63,299,15,13,30,202,30,7*77\r\n'
b'$GAGSV,1,1,03,03,04,077,,25,09,035,,33,18,321,,0*41\r\n'
b'$GBGSV,1,1,04,20,15,293,33,23,48,140,38,30,19,257,31,32,65,326,27,1*76\r\n'
b'$GNGLL,4048.50445,N,07357.72899,W,173542.00,A,D*65\r\n'
b'$GNRMC,173543.00,A,4048.50461,N,07357.72876,W,0.231,,291021,,,D,V*09\r\n'
b'$GNVTG,,T,,M,0.231,N,0.427,K,D*39\r\n'
b'$GNGGA,173543.00,4048.50461,N,07357.72876,W,2,12,0.99,346.8,M,-34.4,M,,0000*74\r\n'
b'$GNGSA,A,3,23,44,32,10,12,18,,,,,,,1.66,0.99,1.33,1*0A\r\n'
b'$GNGSA,A,3,87,73,65,88,,,,,,,,,1.66,0.99,1.33,2*0A\r\n'
b'$GNGSA,A,3,07,13,,,,,,,,,,,1.66,0.99,1.33,3*06\r\n'
b'$GNGSA,A,3,20,23,32,30,,,,,,,,,1.66,0.99,1.33,4*05\r\n'
b'$GPGSV,2,1,06,10,65,320,32,12,12,121,31,18,28,185,36,23,74,100,39,1*60\r\n'
b'$GPGSV,2,2,06,32,37,269,35,44,26,235,30,1*6F\r\n'
b'$GPGSV,1,1,01,23,74,100,14,6*54\r\n'
b'$GPGSV,2,1,07,08,01,300,,21,02,329,,24,53,062,,25,05,151,,0*61\r\n'
b'$GPGSV,2,2,07,25,05,151,,27,02,272,,46,17,246,,0*51\r\n'
b'$GLGSV,2,1,06,65,50,325,29,73,17,031,18,75,31,151,30,81,18,328,29,1*79\r\n'
b'$GLGSV,2,2,06,87,22,226,17,88,35,273,19,1*79\r\n'
b'$GLGSV,1,1,04,66,03,285,,71,11,086,,72,50,050,,74,47,078,,0*73\r\n'
b'$GAGSV,1,1,01,07,63,299,17,2*41\r\n'
b'$GAGSV,1,1,02,07,63,299,14,13,30,202,30,7*76\r\n'
b'$GAGSV,1,1,03,03,04,077,,25,09,035,,33,18,321,,0*41\r\n'
b'$GBGSV,1,1,04,20,15,293,34,23,48,140,35,30,19,257,32,32,65,326,27,1*7F\r\n'
b'$GNGLL,4048.50461,N,07357.72876,W,173543.00,A,D*63\r\n'
b'$GNRMC,173544.00,A,4048.50476,N,07357.72854,W,0.149,,291021,,,D,V*04\r\n'
b'$GNVTG,,T,,M,0.149,N,0.276,K,D*37\r\n'
b'$GNGGA,173544.00,4048.50476,N,07357.72854,W,2,12,0.95,345.7,M,-34.4,M,,0000*75\r\n'
b'$GNGSA,A,3,23,44,32,10,12,18,,,,,,,1.64,0.95,1.33,1*04\r\n'
b'$GNGSA,A,3,87,73,65,88,,,,,,,,,1.64,0.95,1.33,2*04\r\n'
b'$GNGSA,A,3,07,13,,,,,,,,,,,1.64,0.95,1.33,3*08\r\n'
b'$GNGSA,A,3,20,23,32,30,,,,,,,,,1.64,0.95,1.33,4*0B\r\n'
b'$GPGSV,2,1,07,10,65,320,32,12,13,121,31,18,28,185,37,23,74,100,39,1*61\r\n'
b'$GPGSV,2,2,07,24,53,062,13,32,37,269,35,44,26,235,29,1*50\r\n'
b'$GPGSV,1,1,01,23,74,100,12,6*52\r\n'
b'$GPGSV,2,1,06,08,01,300,,21,02,329,,25,05,151,,27,02,272,,0*64\r\n'
b'$GPGSV,2,2,06,27,02,272,,46,17,246,,0*67\r\n'
b'$GLGSV,2,1,06,65,50,325,29,73,17,031,18,75,31,151,31,81,18,328,29,1*78\r\n'
b'$GLGSV,2,2,06,87,22,226,13,88,35,273,19,1*7D\r\n'
b'$GLGSV,1,1,04,66,03,285,,71,11,086,,72,50,050,,74,47,078,,0*73\r\n'
b'$GAGSV,1,1,01,07,63,299,17,2*41\r\n'
b'$GAGSV,1,1,02,07,63,299,14,13,30,202,30,7*76\r\n'
b'$GAGSV,1,1,03,03,04,077,,25,09,035,,33,18,321,,0*41\r\n'
b'$GBGSV,1,1,04,20,15,293,34,23,48,140,33,30,19,257,31,32,65,326,25,1*78\r\n'
b'$GNGLL,4048.50476,N,07357.72854,W,173544.00,A,D*62\r\n'
b'$GNRMC,173545.00,A,4048.50493,N,07357.72833,W,0.159,,291021,,,D,V*0E\r\n'
b'$GNVTG,,T,,M,0.159,N,0.294,K,D*3A\r\n'
b'$GNGGA,173545.00,4048.50493,N,07357.72833,W,2,12,0.96,344.8,M,-34.4,M,,0000*73\r\n'
b'$GNGSA,A,3,23,44,32,10,12,18,,,,,,,1.66,0.96,1.36,1*00\r\n'
b'$GNGSA,A,3,87,73,65,88,,,,,,,,,1.66,0.96,1.36,2*00\r\n'
b'$GNGSA,A,3,07,13,,,,,,,,,,,1.66,0.96,1.36,3*0C\r\n'
b'$GNGSA,A,3,20,23,32,30,,,,,,,,,1.66,0.96,1.36,4*0F\r\n'
b'$GPGSV,2,1,07,10,65,320,31,12,13,121,31,18,28,185,37,23,74,100,39,1*62\r\n'
b'$GPGSV,2,2,07,24,53,062,12,32,37,269,35,44,26,235,29,1*51\r\n'
b'$GPGSV,1,1,01,23,74,100,10,6*50\r\n'
b'$GPGSV,2,1,06,08,01,300,,21,02,329,,25,05,151,,27,02,272,,0*64\r\n'
b'$GPGSV,2,2,06,27,02,272,,46,17,246,,0*67\r\n'
b'$GLGSV,2,1,06,65,50,325,29,73,17,031,18,75,31,151,30,81,18,328,29,1*79\r\n'
b'$GLGSV,2,2,06,87,22,226,16,88,35,273,20,1*72\r\n'
b'$GLGSV,1,1,04,66,03,285,,71,11,086,,72,50,050,,74,47,078,,0*73\r\n'
b'$GAGSV,1,1,01,07,63,299,17,2*41\r\n'
b'$GAGSV,1,1,02,07,63,299,15,13,30,202,29,7*7F\r\n'
b'$GAGSV,1,1,03,03,04,077,,25,09,035,,33,18,321,,0*41\r\n'
b'$GBGSV,1,1,04,20,15,293,34,23,48,140,33,30,19,257,31,32,65,326,23,1*7E\r\n'
b'$GNGLL,4048.50493,N,07357.72833,W,173545.00,A,D*69\r\n'
b'$GNRMC,173546.00,A,4048.50511,N,07357.72814,W,0.120,,291021,,,D,V*0D\r\n'
b'$GNVTG,,T,,M,0.120,N,0.222,K,D*39\r\n'
b'$GNGGA,173546.00,4048.50511,N,07357.72814,W,2,12,0.96,343.8,M,-34.4,M,,0000*79\r\n'
b'$GNGSA,A,3,23,44,32,10,12,18,,,,,,,1.66,0.96,1.36,1*00\r\n'
b'$GNGSA,A,3,87,73,65,88,,,,,,,,,1.66,0.96,1.36,2*00\r\n'
b'$GNGSA,A,3,07,13,,,,,,,,,,,1.66,0.96,1.36,3*0C\r\n'
b'$GNGSA,A,3,20,23,32,30,,,,,,,,,1.66,0.96,1.36,4*0F\r\n'
b'$GPGSV,2,1,07,10,65,320,31,12,13,121,31,18,28,185,38,23,74,100,39,1*6D\r\n'
b'$GPGSV,2,2,07,24,53,062,12,32,37,269,35,44,26,235,29,1*51\r\n'
b'$GPGSV,1,1,01,23,74,100,10,6*50\r\n'
b'$GPGSV,2,1,06,08,01,300,,21,02,329,,25,05,151,,27,02,272,,0*64\r\n'
b'$GPGSV,2,2,06,27,02,272,,46,17,246,,0*67\r\n'
b'$GLGSV,2,1,06,65,50,325,28,73,17,031,19,75,31,151,30,81,18,328,30,1*71\r\n'
b'$GLGSV,2,2,06,87,22,226,16,88,35,273,21,1*73\r\n'
b'$GLGSV,1,1,04,66,03,285,,71,11,086,,72,50,050,,74,47,078,,0*73\r\n'
b'$GAGSV,1,1,01,07,63,299,17,2*41\r\n'
b'$GAGSV,1,1,02,07,63,299,16,13,30,202,29,7*7C\r\n'
b'$GAGSV,1,1,03,03,04,077,,25,09,035,,33,18,321,,0*41\r\n'
b'$GBGSV,1,1,04,20,15,293,35,23,48,140,34,30,19,257,32,32,65,326,24,1*7C\r\n'
b'$GNGLL,4048.50511,N,07357.72814,W,173546.00,A,D*64\r\n'
b'$GNRMC,173547.00,A,4048.50527,N,07357.72795,W,0.138,,291021,,,D,V*06\r\n'
b'$GNVTG,,T,,M,0.138,N,0.256,K,D*33\r\n'
b'$GNGGA,173547.00,4048.50527,N,07357.72795,W,2,12,0.96,342.8,M,-34.4,M,,0000*7A\r\n'
b'$GNGSA,A,3,23,44,32,10,12,18,,,,,,,1.66,0.96,1.36,1*00\r\n'
b'$GNGSA,A,3,87,73,65,88,,,,,,,,,1.66,0.96,1.36,2*00\r\n'
b'$GNGSA,A,3,07,13,,,,,,,,,,,1.66,0.96,1.36,3*0C\r\n'
b'$GNGSA,A,3,20,23,32,30,,,,,,,,,1.66,0.96,1.36,4*0F\r\n'
b'$GPGSV,2,1,07,10,65,320,30,12,13,121,30,18,28,185,38,23,74,100,39,1*6D\r\n'
b'$GPGSV,2,2,07,24,53,062,13,32,37,269,35,44,26,235,29,1*50\r\n'
b'$GPGSV,1,1,01,23,74,100,11,6*51\r\n'
b'$GPGSV,2,1,06,08,01,300,,21,02,329,,25,05,151,,27,02,272,,0*64\r\n'
b'$GPGSV,2,2,06,27,02,272,,46,17,246,,0*67\r\n'
b'$GLGSV,2,1,06,65,50,325,27,73,17,031,19,75,31,151,30,81,18,328,30,1*7E\r\n'
b'$GLGSV,2,2,06,87,22,226,19,88,35,273,23,1*7E\r\n'
b'$GLGSV,1,1,04,66,03,285,,71,11,086,,72,50,050,,74,47,078,,0*73\r\n'
b'$GAGSV,1,1,01,07,63,299,16,2*40\r\n'
b'$GAGSV,1,1,02,07,63,299,17,13,30,202,28,7*7C\r\n'
b'$GAGSV,1,1,03,03,04,077,,25,09,035,,33,18,321,,0*41\r\n'
b'$GBGSV,1,1,04,20,15,293,35,23,48,140,34,30,19,257,31,32,65,326,23,1*78\r\n'
b'$GNGLL,4048.50527,N,07357.72795,W,173547.00,A,D*66\r\n'
b'$GNRMC,173548.00,A,4048.50544,N,07357.72775,W,0.140,,291021,,,D,V*0D\r\n'
b'$GNVTG,,T,,M,0.140,N,0.259,K,D*33\r\n'
b'$GNGGA,173548.00,4048.50544,N,07357.72775,W,2,12,0.96,341.9,M,-34.4,M,,0000*7C\r\n'
b'$GNGSA,A,3,23,44,32,10,12,18,,,,,,,1.66,0.96,1.36,1*00\r\n'
b'$GNGSA,A,3,87,73,65,88,,,,,,,,,1.66,0.96,1.36,2*00\r\n'
b'$GNGSA,A,3,07,13,,,,,,,,,,,1.66,0.96,1.36,3*0C\r\n'
b'$GNGSA,A,3,20,23,32,30,,,,,,,,,1.66,0.96,1.36,4*0F\r\n'
b'$GPGSV,2,1,06,10,65,320,29,12,13,121,31,18,28,185,38,23,74,100,38,1*64\r\n'
b'$GPGSV,2,2,06,32,37,269,35,44,26,235,29,1*67\r\n'
b'$GPGSV,1,1,01,23,74,100,11,6*51\r\n'
b'$GPGSV,2,1,07,08,01,300,,21,02,329,,24,53,062,,25,05,151,,0*61\r\n'
b'$GPGSV,2,2,07,25,05,151,,27,02,272,,46,17,246,,0*51\r\n'
b'$GLGSV,2,1,06,65,50,325,25,73,17,031,20,75,31,151,30,81,18,328,30,1*76\r\n'
b'$GLGSV,2,2,06,87,22,226,18,88,35,273,25,1*79\r\n'
b'$GLGSV,1,1,04,66,03,285,,71,11,086,,72,50,050,,74,47,078,,0*73\r\n'
b'$GAGSV,1,1,01,07,63,299,17,2*41\r\n'
b'$GAGSV,1,1,02,07,63,299,17,13,30,202,28,7*7C\r\n'
b'$GAGSV,1,1,03,03,04,077,,25,09,035,,33,18,321,,0*41\r\n'
b'$GBGSV,1,1,04,20,15,293,35,23,48,140,34,30,19,257,31,32,65,326,21,1*7A\r\n'
b'$GNGLL,4048.50544,N,07357.72775,W,173548.00,A,D*62\r\n'
b'$GNRMC,173549.00,A,4048.50562,N,07357.72751,W,0.176,,291021,,,D,V*0B\r\n'
b'$GNVTG,,T,,M,0.176,N,0.327,K,D*3E\r\n'
b'$GNGGA,173549.00,4048.50562,N,07357.72751,W,2,12,1.00,340.8,M,-34.4,M,,0000*71\r\n'
b'$GNGSA,A,3,23,44,32,10,12,18,,,,,,,1.74,1.00,1.43,1*0F\r\n'
b'$GNGSA,A,3,87,73,65,88,,,,,,,,,1.74,1.00,1.43,2*0F\r\n'
b'$GNGSA,A,3,07,13,,,,,,,,,,,1.74,1.00,1.43,3*03\r\n'
b'$GNGSA,A,3,20,23,32,30,,,,,,,,,1.74,1.00,1.43,4*00\r\n'
b'$GPGSV,2,1,06,10,65,320,28,12,13,121,32,18,28,185,38,23,74,100,38,1*66\r\n'
b'$GPGSV,2,2,06,32,37,269,34,44,26,235,29,1*66\r\n'
b'$GPGSV,1,1,01,23,74,100,12,6*52\r\n'
b'$GPGSV,2,1,07,08,01,300,,21,02,329,,24,53,062,,25,05,151,,0*61\r\n'
b'$GPGSV,2,2,07,25,05,151,,27,02,272,,46,17,246,,0*51\r\n'
b'$GLGSV,2,1,06,65,50,325,22,73,17,031,20,75,31,151,29,81,18,328,30,1*79\r\n'
b'$GLGSV,2,2,06,87,22,226,17,88,35,273,27,1*74\r\n'
b'$GLGSV,1,1,04,66,03,285,,71,11,086,,72,50,050,,74,47,078,,0*73\r\n'
b'$GAGSV,1,1,01,07,63,299,17,2*41\r\n'
b'$GAGSV,1,1,02,07,63,299,18,13,30,202,28,7*73\r\n'
b'$GAGSV,1,1,03,03,04,077,,25,09,035,,33,18,321,,0*41\r\n'
b'$GBGSV,1,1,04,20,15,293,35,23,48,140,34,30,19,257,31,32,65,326,20,1*7B\r\n'
b'$GNGLL,4048.50562,N,07357.72751,W,173549.00,A,D*61\r\n'
b'$GNRMC,173550.00,A,4048.50579,N,07357.72730,W,0.146,,291021,,,D,V*0D\r\n'
b'$GNVTG,,T,,M,0.146,N,0.269,K,D*36\r\n'
b'$GNGGA,173550.00,4048.50579,N,07357.72730,W,2,12,0.95,339.8,M,-34.4,M,,0000*77\r\n'
b'$GNGSA,A,3,23,44,32,10,12,18,,,,,,,1.66,0.95,1.36,1*03\r\n'
b'$GNGSA,A,3,87,73,65,88,,,,,,,,,1.66,0.95,1.36,2*03\r\n'
b'$GNGSA,A,3,07,13,,,,,,,,,,,1.66,0.95,1.36,3*0F\r\n'
b'$GNGSA,A,3,20,23,32,30,,,,,,,,,1.66,0.95,1.36,4*0C\r\n'
b'$GPGSV,2,1,07,10,65,320,27,12,13,121,32,18,28,185,39,23,74,100,38,1*69\r\n'
b'$GPGSV,2,2,07,24,53,062,16,32,37,269,34,44,26,235,29,1*54\r\n'
b'$GPGSV,1,1,01,23,74,100,13,6*53\r\n'
b'$GPGSV,2,1,06,08,01,300,,21,02,329,,25,05,151,,27,02,272,,0*64\r\n'
b'$GPGSV,2,2,06,27,02,272,,46,17,246,,0*67\r\n'
b'$GLGSV,2,1,06,65,50,325,19,73,17,031,19,75,31,151,29,81,18,328,30,1*7B\r\n'
b'$GLGSV,2,2,06,87,22,226,18,88,35,273,33,1*7E\r\n'
b'$GLGSV,1,1,04,66,03,285,,71,11,086,,72,50,050,,74,47,078,,0*73\r\n'
b'$GAGSV,1,1,01,07,63,299,16,2*40\r\n'
b'$GAGSV,1,1,02,07,63,299,19,13,30,202,28,7*72\r\n'
b'$GAGSV,1,1,03,03,04,077,,25,09,035,,33,18,321,,0*41\r\n'
b'$GBGSV,1,1,04,20,15,293,35,23,48,140,38,30,19,257,30,32,65,326,20,1*76\r\n'
b'$GNGLL,4048.50579,N,07357.72730,W,173550.00,A,D*64\r\n'
b'$GNRMC,173551.00,A,4048.50594,N,07357.72705,W,0.102,,291021,,,D,V*09\r\n'
b'$GNVTG,,T,,M,0.102,N,0.189,K,D*3B\r\n'
b'$GNGGA,173551.00,4048.50594,N,07357.72705,W,2,12,0.95,338.8,M,-34.4,M,,0000*72\r\n'
b'$GNGSA,A,3,23,44,32,10,12,18,,,,,,,1.71,0.95,1.43,1*07\r\n'
b'$GNGSA,A,3,87,73,65,88,,,,,,,,,1.71,0.95,1.43,2*07\r\n'
b'$GNGSA,A,3,07,13,,,,,,,,,,,1.71,0.95,1.43,3*0B\r\n'
b'$GNGSA,A,3,20,23,32,30,,,,,,,,,1.71,0.95,1.43,4*08\r\n'
b'$GPGSV,2,1,07,10,65,320,26,12,13,121,33,18,28,185,39,23,74,100,36,1*67\r\n'
b'$GPGSV,2,2,07,24,53,062,13,32,37,269,34,44,26,235,30,1*59\r\n'
b'$GPGSV,1,1,01,23,74,100,13,6*53\r\n'
b'$GPGSV,2,1,06,08,01,300,,21,02,329,,25,05,151,,27,02,272,,0*64\r\n'
b'$GPGSV,2,2,06,27,02,272,,46,17,246,,0*67\r\n'
b'$GLGSV,2,1,06,65,50,325,15,73,17,031,19,75,31,151,29,81,18,328,30,1*77\r\n'
b'$GLGSV,2,2,06,87,22,226,16,88,35,273,31,1*72\r\n'
b'$GLGSV,1,1,04,66,03,285,,71,11,086,,72,50,050,,74,47,078,,0*73\r\n'
b'$GAGSV,1,1,01,07,63,299,16,2*40\r\n'
b'$GAGSV,1,1,02,07,63,299,21,13,30,202,28,7*79\r\n'
b'$GAGSV,1,1,03,03,04,077,,25,09,035,,33,18,321,,0*41\r\n'
b'$GBGSV,1,1,04,20,15,293,33,23,48,140,36,30,19,257,30,32,65,326,20,1*7E\r\n'
b'$GNGLL,4048.50594,N,07357.72705,W,173551.00,A,D*60\r\n'
b'$GNRMC,173552.00,A,4048.50610,N,07357.72673,W,0.091,,291021,,,D,V*0E\r\n'
b'$GNVTG,,T,,M,0.091,N,0.169,K,D*3E\r\n'
b'$GNGGA,173552.00,4048.50610,N,07357.72673,W,2,12,0.95,337.6,M,-34.4,M,,0000*7F\r\n'
b'$GNGSA,A,3,23,44,32,10,12,18,,,,,,,1.66,0.95,1.36,1*03\r\n'
b'$GNGSA,A,3,81,87,73,65,88,,,,,,,,1.66,0.95,1.36,2*0A\r\n'
b'$GNGSA,A,3,07,13,,,,,,,,,,,1.66,0.95,1.36,3*0F\r\n'
b'$GNGSA,A,3,20,23,32,30,,,,,,,,,1.66,0.95,1.36,4*0C\r\n'
b'$GPGSV,2,1,06,10,65,320,27,12,13,121,34,18,28,185,40,23,74,100,35,1*6D\r\n'
b'$GPGSV,2,2,06,32,37,269,36,44,26,235,30,1*6C\r\n'
b'$GPGSV,1,1,01,12,13,121,14,5*57\r\n'
b'$GPGSV,1,1,01,23,74,100,13,6*53\r\n'
b'$GPGSV,2,1,07,08,01,300,,21,02,329,,24,53,062,,25,05,151,,0*61\r\n'
b'$GPGSV,2,2,07,25,05,151,,27,02,272,,46,17,246,,0*51\r\n'
b'$GLGSV,2,1,06,65,50,325,13,73,17,031,18,75,31,151,28,81,18,328,31,1*70\r\n'
b'$GLGSV,2,2,06,87,22,226,19,88,35,273,32,1*7E\r\n'
b'$GLGSV,1,1,04,66,03,285,,71,11,086,,72,50,050,,74,47,078,,0*73\r\n'
b'$GAGSV,1,1,01,07,63,299,17,2*41\r\n'
b'$GAGSV,1,1,02,07,63,299,18,13,30,202,30,7*7A\r\n'
b'$GAGSV,1,1,03,03,04,077,,25,09,035,,33,18,321,,0*41\r\n'
b'$GBGSV,1,1,04,20,15,293,34,23,48,140,37,30,19,257,29,32,65,326,21,1*71\r\n'
b'$GNGLL,4048.50610,N,07357.72673,W,173552.00,A,D*6C\r\n'
b'$GNRMC,173553.00,A,4048.50663,N,07357.72613,W,0.074,,291021,,,D,V*06\r\n'
b'$GNVTG,,T,,M,0.074,N,0.138,K,D*31\r\n'
b'$GNGGA,173553.00,4048.50663,N,07357.72613,W,2,12,0.80,335.3,M,-34.4,M,,0000*7F\r\n'
b'$GNGSA,A,3,23,44,32,10,12,18,,,,,,,1.42,0.80,1.17,1*02\r\n'
b'$GNGSA,A,3,81,87,73,65,88,,,,,,,,1.42,0.80,1.17,2*0B\r\n'
b'$GNGSA,A,3,07,13,,,,,,,,,,,1.42,0.80,1.17,3*0E\r\n'
b'$GNGSA,A,3,20,23,32,30,,,,,,,,,1.42,0.80,1.17,4*0D\r\n'
b'$GPGSV,2,1,06,10,65,320,27,12,13,121,35,18,28,185,39,23,74,100,35,1*62\r\n'
b'$GPGSV,2,2,06,32,37,269,34,44,26,235,30,1*6E\r\n'
b'$GPGSV,1,1,02,12,13,121,14,23,74,100,14,6*61\r\n'
b'$GPGSV,2,1,07,08,01,300,,21,02,329,,24,53,062,,25,05,151,,0*61\r\n'
b'$GPGSV,2,2,07,25,05,151,,27,02,272,,46,17,246,,0*51\r\n'
b'$GLGSV,2,1,06,65,50,325,17,73,17,031,17,75,31,151,28,81,18,328,30,1*7A\r\n'
b'$GLGSV,2,2,06,87,22,226,20,88,35,273,35,1*73\r\n'
b'$GLGSV,1,1,04,66,03,285,,71,11,086,,72,50,050,,74,47,078,,0*73\r\n'
b'$GAGSV,1,1,01,07,63,299,18,2*4E\r\n'
b'$GAGSV,1,1,02,07,63,299,18,13,30,202,29,7*72\r\n'
b'$GAGSV,1,1,03,03,04,077,,25,09,035,,33,18,321,,0*41\r\n'
b'$GBGSV,1,1,04,20,15,293,34,23,48,140,36,30,19,257,29,32,65,326,23,1*72\r\n'
b'$GNGLL,4048.50663,N,07357.72613,W,173553.00,A,D*6F\r\n'
b'$GNRMC,173554.00,A,4048.50674,N,07357.72588,W,0.088,,291021,,,D,V*05\r\n'
b'$GNVTG,,T,,M,0.088,N,0.162,K,D*3D\r\n'
b'$GNGGA,173554.00,4048.50674,N,07357.72588,W,2,12,0.95,334.3,M,-34.4,M,,0000*7A\r\n'
b'$GNGSA,A,3,23,44,32,10,12,18,,,,,,,1.66,0.95,1.36,1*03\r\n'
b'$GNGSA,A,3,81,87,73,65,88,,,,,,,,1.66,0.95,1.36,2*0A\r\n'
b'$GNGSA,A,3,07,13,,,,,,,,,,,1.66,0.95,1.36,3*0F\r\n'
b'$GNGSA,A,3,20,23,32,30,,,,,,,,,1.66,0.95,1.36,4*0C\r\n'
b'$GPGSV,2,1,06,10,65,320,27,12,13,121,33,18,28,185,39,23,74,100,36,1*67\r\n'
b'$GPGSV,2,2,06,32,37,269,35,44,26,235,31,1*6E\r\n'
b'$GPGSV,1,1,02,12,13,121,14,23,74,100,14,6*61\r\n'
b'$GPGSV,2,1,07,08,01,300,,21,02,329,,24,53,062,,25,05,151,,0*61\r\n'
b'$GPGSV,2,2,07,25,05,151,,27,02,272,,46,17,246,,0*51\r\n'
b'$GLGSV,2,1,06,65,50,325,21,73,17,031,15,75,31,151,29,81,18,328,30,1*7C\r\n'
b'$GLGSV,2,2,06,87,22,226,19,88,35,273,35,1*79\r\n'
b'$GLGSV,1,1,04,66,03,285,,71,11,086,,72,50,050,,74,47,078,,0*73\r\n'
b'$GAGSV,1,1,01,07,63,299,17,2*41\r\n'
b'$GAGSV,1,1,02,07,63,299,12,13,30,202,29,7*78\r\n'
b'$GAGSV,1,1,03,03,04,077,,25,09,035,,33,18,321,,0*41\r\n'
b'$GBGSV,1,1,04,20,15,293,35,23,48,140,35,30,19,257,30,32,65,326,26,1*7D\r\n'
b'$GNGLL,4048.50674,N,07357.72588,W,173554.00,A,D*6F\r\n'
b'$GNRMC,173555.00,A,4048.50682,N,07357.72564,W,0.095,,291021,,,D,V*03\r\n'
b'$GNVTG,,T,,M,0.095,N,0.175,K,D*37\r\n'
b'$GNGGA,173555.00,4048.50682,N,07357.72564,W,2,12,0.95,333.5,M,-34.4,M,,0000*71\r\n'
b'$GNGSA,A,3,23,44,32,10,12,18,,,,,,,1.66,0.95,1.36,1*03\r\n'
b'$GNGSA,A,3,81,87,73,65,88,,,,,,,,1.66,0.95,1.36,2*0A\r\n'
b'$GNGSA,A,3,07,13,,,,,,,,,,,1.66,0.95,1.36,3*0F\r\n'
b'$GNGSA,A,3,20,23,32,30,,,,,,,,,1.66,0.95,1.36,4*0C\r\n'
b'$GPGSV,2,1,06,10,65,320,27,12,13,121,32,18,28,185,39,23,74,100,36,1*66\r\n'
b'$GPGSV,2,2,06,32,37,269,35,44,26,235,31,1*6E\r\n'
b'$GPGSV,1,1,02,12,13,121,14,23,74,100,14,6*61\r\n'
b'$GPGSV,2,1,07,08,01,300,,21,02,329,,24,53,062,,25,05,151,,0*61\r\n'
b'$GPGSV,2,2,07,25,05,151,,27,02,272,,46,17,246,,0*51\r\n'
b'$GLGSV,2,1,06,65,50,325,23,73,17,031,11,75,31,151,29,81,18,328,29,1*72\r\n'
b'$GLGSV,2,2,06,87,22,226,19,88,35,273,36,1*7A\r\n'
b'$GLGSV,1,1,04,66,03,285,,71,11,086,,72,50,050,,74,47,078,,0*73\r\n'
b'$GAGSV,1,1,01,07,63,299,17,2*41\r\n'
b'$GAGSV,1,1,02,07,63,299,18,13,30,202,28,7*73\r\n'
b'$GAGSV,1,1,03,03,04,078,,25,09,035,,33,18,321,,0*4E\r\n'
b'$GBGSV,1,1,04,20,15,293,35,23,48,140,34,30,19,257,29,32,65,326,26,1*74\r\n'
b'$GNGLL,4048.50682,N,07357.72564,W,173555.00,A,D*65\r\n'
b'$GNRMC,173556.00,A,4048.50687,N,07357.72546,W,0.098,,291021,,,D,V*08\r\n'
b'$GNVTG,,T,,M,0.098,N,0.181,K,D*31\r\n'
b'$GNGGA,173556.00,4048.50687,N,07357.72546,W,2,12,0.94,332.6,M,-34.4,M,,0000*74\r\n'
b'$GNGSA,A,3,23,44,32,10,12,18,,,,,,,1.63,0.94,1.33,1*02\r\n'
b'$GNGSA,A,3,81,87,65,88,,,,,,,,,1.63,0.94,1.33,2*0F\r\n'
b'$GNGSA,A,3,07,13,,,,,,,,,,,1.63,0.94,1.33,3*0E\r\n'
b'$GNGSA,A,3,20,23,32,30,,,,,,,,,1.63,0.94,1.33,4*0D\r\n'
b'$GPGSV,2,1,06,10,65,320,26,12,13,121,32,18,28,185,39,23,74,100,36,1*67\r\n'
b'$GPGSV,2,2,06,32,37,269,35,44,26,235,31,1*6E\r\n'
b'$GPGSV,1,1,02,12,13,121,14,23,74,100,15,6*60\r\n'
b'$GPGSV,2,1,07,08,01,300,,21,02,329,,24,53,062,,25,05,151,,0*61\r\n'
b'$GPGSV,2,2,07,25,05,151,,27,02,272,,46,17,246,,0*51\r\n'
b'$GLGSV,2,1,06,65,50,325,26,73,17,031,09,75,31,151,29,81,18,328,28,1*7F\r\n'
b'$GLGSV,2,2,06,87,22,226,17,88,35,273,36,1*74\r\n'
b'$GLGSV,1,1,04,66,03,285,,71,11,086,,72,50,050,,74,47,078,,0*73\r\n'
b'$GAGSV,1,1,01,07,63,299,16,2*40\r\n'
b'$GAGSV,1,1,02,07,63,299,21,13,30,202,28,7*79\r\n'
b'$GAGSV,1,1,03,03,04,078,,25,09,035,,33,18,321,,0*4E\r\n'
b'$GBGSV,1,1,04,20,15,293,35,23,48,140,34,30,19,257,29,32,65,326,27,1*75\r\n'
b'$GNGLL,4048.50687,N,07357.72546,W,173556.00,A,D*63\r\n'
b'$GNRMC,173557.00,A,4048.50692,N,07357.72530,W,0.153,,291021,,,D,V*0A\r\n'
b'$GNVTG,,T,,M,0.153,N,0.284,K,D*31\r\n'
b'$GNGGA,173557.00,4048.50692,N,07357.72530,W,2,12,1.03,332.2,M,-34.4,M,,0000*7B\r\n'
b'$GNGSA,A,3,23,44,32,10,12,18,,,,,,,1.69,1.03,1.34,1*00\r\n'
b'$GNGSA,A,3,81,87,65,88,,,,,,,,,1.69,1.03,1.34,2*0D\r\n'
b'$GNGSA,A,3,07,13,,,,,,,,,,,1.69,1.03,1.34,3*0C\r\n'
b'$GNGSA,A,3,20,23,32,30,,,,,,,,,1.69,1.03,1.34,4*0F\r\n'
b'$GPGSV,2,1,06,10,65,320,26,12,13,121,32,18,28,185,39,23,74,100,36,1*67\r\n'
b'$GPGSV,2,2,06,32,37,269,36,44,26,235,31,1*6D\r\n'
b'$GPGSV,1,1,02,12,13,121,14,23,74,100,15,6*60\r\n'
b'$GPGSV,2,1,07,08,01,300,,21,02,329,,24,53,062,,25,05,151,,0*61\r\n'
b'$GPGSV,2,2,07,25,05,151,,27,02,272,,46,17,246,,0*51\r\n'
b'$GLGSV,2,1,06,65,50,325,27,73,17,031,08,75,31,151,29,81,18,328,28,1*7F\r\n'
b'$GLGSV,2,2,06,87,22,226,18,88,35,273,36,1*7B\r\n'
b'$GLGSV,1,1,04,66,03,285,,71,11,086,,72,50,050,,74,47,078,,0*73\r\n'
b'$GAGSV,1,1,01,07,63,300,15,2*42\r\n'
b'$GAGSV,1,1,02,07,63,300,21,13,30,202,28,7*78\r\n'
b'$GAGSV,1,1,03,03,04,078,,25,09,035,,33,18,321,,0*4E\r\n'
b'$GBGSV,1,1,04,20,15,293,35,23,48,140,35,30,19,257,30,32,65,326,28,1*73\r\n'
b'$GNGLL,4048.50692,N,07357.72530,W,173557.00,A,D*67\r\n'
b'$GNRMC,173558.00,A,4048.50695,N,07357.72505,W,0.164,,291021,,,D,V*00\r\n'
b'$GNVTG,,T,,M,0.164,N,0.304,K,D*3C\r\n'
b'$GNGGA,173558.00,4048.50695,N,07357.72505,W,2,12,0.94,331.4,M,-34.4,M,,0000*7F\r\n'
b'$GNGSA,A,3,23,44,32,10,12,18,,,,,,,1.63,0.94,1.33,1*02\r\n'
b'$GNGSA,A,3,81,87,65,88,,,,,,,,,1.63,0.94,1.33,2*0F\r\n'
b'$GNGSA,A,3,07,13,,,,,,,,,,,1.63,0.94,1.33,3*0E\r\n'
b'$GNGSA,A,3,20,23,32,30,,,,,,,,,1.63,0.94,1.33,4*0D\r\n'
b'$GPGSV,2,1,06,10,65,320,25,12,13,121,31,18,28,185,39,23,74,100,36,1*67\r\n'
b'$GPGSV,2,2,06,32,37,269,35,44,26,235,31,1*6E\r\n'
b'$GPGSV,1,1,02,12,13,121,14,23,74,100,14,6*61\r\n'
b'$GPGSV,2,1,07,08,01,300,,21,02,329,,24,53,062,,25,05,151,,0*61\r\n'
b'$GPGSV,2,2,07,25,05,151,,27,02,272,,46,17,246,,0*51\r\n'
b'$GLGSV,2,1,06,65,50,325,28,73,17,031,08,75,31,151,30,81,18,328,28,1*78\r\n'
b'$GLGSV,2,2,06,87,22,226,18,88,35,273,36,1*7B\r\n'
b'$GLGSV,1,1,04,66,03,285,,71,11,086,,72,50,050,,74,47,078,,0*73\r\n'
b'$GAGSV,1,1,01,07,63,300,15,2*42\r\n'
b'$GAGSV,1,1,02,07,63,300,21,13,30,202,28,7*78\r\n'
b'$GAGSV,1,1,03,03,04,078,,25,09,035,,33,18,321,,0*4E\r\n'
b'$GBGSV,1,1,04,20,15,293,35,23,48,140,35,30,19,257,30,32,65,326,28,1*73\r\n'
b'$GNGLL,4048.50695,N,07357.72505,W,173558.00,A,D*69\r\n'
b'$GNRMC,173559.00,A,4048.50697,N,07357.72483,W,0.138,,291021,,,D,V*05\r\n'
b'$GNVTG,,T,,M,0.138,N,0.256,K,D*33\r\n'
b'$GNGGA,173559.00,4048.50697,N,07357.72483,W,2,12,0.94,330.7,M,-34.4,M,,0000*71\r\n'
b'$GNGSA,A,3,23,44,32,10,12,18,,,,,,,1.63,0.94,1.33,1*02\r\n'
b'$GNGSA,A,3,81,87,73,65,88,,,,,,,,1.63,0.94,1.33,2*0B\r\n'
b'$GNGSA,A,3,07,13,,,,,,,,,,,1.63,0.94,1.33,3*0E\r\n'
b'$GNGSA,A,3,20,23,32,30,,,,,,,,,1.63,0.94,1.33,4*0D\r\n'
b'$GPGSV,2,1,06,10,65,320,25,12,13,121,31,18,28,185,39,23,74,100,36,1*67\r\n'
b'$GPGSV,2,2,06,32,37,269,35,44,26,235,32,1*6D\r\n'
b'$GPGSV,1,1,02,12,13,121,11,23,74,100,13,6*63\r\n'
b'$GPGSV,2,1,07,08,01,300,,21,02,329,,24,53,062,,25,05,151,,0*61\r\n'
b'$GPGSV,2,2,07,25,05,151,,27,02,272,,46,17,246,,0*51\r\n'
b'$GLGSV,2,1,06,65,50,325,28,73,17,031,12,75,31,151,30,81,18,328,27,1*7C\r\n'
b'$GLGSV,2,2,06,87,22,226,19,88,35,273,36,1*7A\r\n'
b'$GLGSV,1,1,04,66,03,285,,71,11,086,,72,50,050,,74,47,078,,0*73\r\n'
b'$GAGSV,1,1,01,07,63,300,14,2*43\r\n'
b'$GAGSV,1,1,02,07,63,300,21,13,30,202,28,7*78\r\n'
b'$GAGSV,1,1,03,03,04,078,,25,09,035,,33,18,321,,0*4E\r\n'
b'$GBGSV,1,1,04,20,15,293,35,23,48,140,35,30,19,257,30,32,65,326,28,1*73\r\n'
b'$GNGLL,4048.50697,N,07357.72483,W,173559.00,A,D*65\r\n'
b'$GNRMC,173600.00,A,4048.50704,N,07357.72461,W,0.090,,291021,,,D,V*0E\r\n'
b'$GNVTG,,T,,M,0.090,N,0.166,K,D*30\r\n'
b'$GNGGA,173600.00,4048.50704,N,07357.72461,W,2,12,0.95,330.1,M,-34.4,M,,0000*7E\r\n'
b'$GNGSA,A,3,23,44,32,10,12,18,,,,,,,1.66,0.95,1.36,1*03\r\n'
b'$GNGSA,A,3,81,87,73,65,88,,,,,,,,1.66,0.95,1.36,2*0A\r\n'
b'$GNGSA,A,3,07,13,,,,,,,,,,,1.66,0.95,1.36,3*0F\r\n'
b'$GNGSA,A,3,20,23,32,30,,,,,,,,,1.66,0.95,1.36,4*0C\r\n'
b'$GPGSV,2,1,06,10,65,320,23,12,13,121,30,18,28,185,39,23,74,100,35,1*63\r\n'
b'$GPGSV,2,2,06,32,37,269,35,44,26,235,32,1*6D\r\n'
b'$GPGSV,1,1,02,12,13,121,11,23,74,100,12,6*62\r\n'
b'$GPGSV,2,1,07,08,01,300,,21,02,329,,24,53,062,,25,05,151,,0*61\r\n'
b'$GPGSV,2,2,07,25,05,151,,27,02,272,,46,17,246,,0*51\r\n'
b'$GLGSV,2,1,06,65,50,325,28,73,17,031,14,75,31,151,30,81,18,328,27,1*7A\r\n'
b'$GLGSV,2,2,06,87,22,226,19,88,35,273,37,1*7B\r\n'
b'$GLGSV,1,1,04,66,03,285,,71,11,086,,72,50,050,,74,47,078,,0*73\r\n'
b'$GAGSV,1,1,01,07,63,300,14,2*43\r\n'
b'$GAGSV,1,1,02,07,63,300,22,13,30,202,28,7*7B\r\n'
b'$GAGSV,1,1,03,03,04,078,,25,09,035,,33,18,321,,0*4E\r\n'
b'$GBGSV,1,1,04,20,15,293,35,23,48,140,35,30,19,257,30,32,65,326,29,1*72\r\n'
b'$GNGLL,4048.50704,N,07357.72461,W,173600.00,A,D*6D\r\n'
b'$GNRMC,173601.00,A,4048.50706,N,07357.72441,W,0.107,,291021,,,D,V*00\r\n'
b'$GNVTG,,T,,M,0.107,N,0.198,K,D*3E\r\n'
b'$GNGGA,173601.00,4048.50706,N,07357.72441,W,2,12,0.94,329.5,M,-34.4,M,,0000*72\r\n'
b'$GNGSA,A,3,23,44,32,10,12,18,,,,,,,1.63,0.94,1.34,1*05\r\n'
b'$GNGSA,A,3,81,87,73,65,88,,,,,,,,1.63,0.94,1.34,2*0C\r\n'
b'$GNGSA,A,3,07,13,,,,,,,,,,,1.63,0.94,1.34,3*09\r\n'
b'$GNGSA,A,3,20,23,32,30,,,,,,,,,1.63,0.94,1.34,4*0A\r\n'
b'$GPGSV,2,1,07,10,65,320,23,12,13,121,30,18,28,185,39,23,74,100,35,1*62\r\n'
b'$GPGSV,2,2,07,24,53,062,15,32,37,269,35,44,26,235,31,1*5F\r\n'
b'$GPGSV,1,1,02,12,13,121,13,23,74,100,12,6*60\r\n'
b'$GPGSV,2,1,06,08,01,300,,21,02,329,,25,05,151,,27,02,272,,0*64\r\n'
b'$GPGSV,2,2,06,27,02,272,,46,17,246,,0*67\r\n'
b'$GLGSV,2,1,06,65,50,325,28,73,17,031,16,75,31,151,30,81,18,328,26,1*79\r\n'
b'$GLGSV,2,2,06,87,22,226,19,88,35,273,37,1*7B\r\n'
b'$GLGSV,1,1,04,66,03,285,,71,11,086,,72,50,050,,74,47,078,,0*73\r\n'
b'$GAGSV,1,1,01,07,63,300,15,2*42\r\n'
b'$GAGSV,1,1,02,07,63,300,22,13,30,202,29,7*7A\r\n'
b'$GAGSV,1,1,03,03,04,078,,25,09,035,,33,18,321,,0*4E\r\n'
b'$GBGSV,1,1,04,20,15,293,34,23,48,140,36,30,19,257,30,32,65,326,29,1*70\r\n'
b'$GNGLL,4048.50706,N,07357.72441,W,173601.00,A,D*6C\r\n'
b'$GNRMC,173602.00,A,4048.50710,N,07357.72420,W,0.124,,291021,,,D,V*02\r\n'
b'$GNVTG,,T,,M,0.124,N,0.230,K,D*3E\r\n'
b'$GNGGA,173602.00,4048.50710,N,07357.72420,W,2,12,0.94,329.0,M,-34.4,M,,0000*74\r\n'
b'$GNGSA,A,3,23,44,32,10,12,18,,,,,,,1.63,0.94,1.34,1*05\r\n'
b'$GNGSA,A,3,87,73,65,88,,,,,,,,,1.63,0.94,1.34,2*05\r\n'
b'$GNGSA,A,3,07,13,,,,,,,,,,,1.63,0.94,1.34,3*09\r\n'
b'$GNGSA,A,3,20,23,32,30,,,,,,,,,1.63,0.94,1.34,4*0A\r\n'
b'$GPGSV,2,1,07,10,65,320,22,12,13,121,30,18,28,185,39,23,74,100,35,1*63\r\n'
b'$GPGSV,2,2,07,24,53,062,16,32,37,269,35,44,26,235,31,1*5C\r\n'
b'$GPGSV,1,1,02,12,13,121,14,23,74,100,12,6*67\r\n'
b'$GPGSV,2,1,06,08,01,300,,21,02,329,,25,05,151,,27,02,272,,0*64\r\n'
b'$GPGSV,2,2,06,27,02,272,,46,17,246,,0*67\r\n'
b'$GLGSV,2,1,05,65,50,325,28,73,17,031,17,75,31,151,30,87,22,226,19,1*77\r\n'
b'$GLGSV,2,2,05,88,35,273,37,1*49\r\n'
b'$GLGSV,2,1,05,66,03,285,,71,11,086,,72,50,050,,74,47,078,,0*71\r\n'
b'$GLGSV,2,2,05,74,47,078,,0*43\r\n'
b'$GAGSV,1,1,01,07,63,300,15,2*42\r\n'
b'$GAGSV,1,1,02,07,63,300,22,13,30,202,29,7*7A\r\n'
b'$GAGSV,1,1,03,03,04,078,,25,09,035,,33,18,321,,0*4E\r\n'
b'$GBGSV,1,1,04,20,15,293,34,23,48,140,36,30,19,257,31,32,65,326,29,1*71\r\n'
b'$GNGLL,4048.50710,N,07357.72420,W,173602.00,A,D*6F\r\n'
b'$GNRMC,173603.00,A,4048.50715,N,07357.72400,W,0.083,,291021,,,D,V*08\r\n'
b'$GNVTG,,T,,M,0.083,N,0.153,K,D*34\r\n'
b'$GNGGA,173603.00,4048.50715,N,07357.72400,W,2,12,0.94,328.4,M,-34.4,M,,0000*77\r\n'
b'$GNGSA,A,3,23,44,32,10,12,18,,,,,,,1.63,0.94,1.34,1*05\r\n'
b'$GNGSA,A,3,87,73,65,88,,,,,,,,,1.63,0.94,1.34,2*05\r\n'
b'$GNGSA,A,3,07,13,,,,,,,,,,,1.63,0.94,1.34,3*09\r\n'
b'$GNGSA,A,3,20,23,32,30,,,,,,,,,1.63,0.94,1.34,4*0A\r\n'
b'$GPGSV,2,1,07,10,65,320,22,12,13,121,30,18,28,185,39,23,74,100,35,1*63\r\n'
b'$GPGSV,2,2,07,24,53,062,15,32,37,269,35,44,26,235,31,1*5F\r\n'
b'$GPGSV,1,1,02,12,13,121,14,23,74,100,14,6*61\r\n'
b'$GPGSV,2,1,06,08,01,300,,21,02,329,,25,05,151,,27,02,272,,0*64\r\n'
b'$GPGSV,2,2,06,27,02,272,,46,17,246,,0*67\r\n'
b'$GLGSV,2,1,06,65,50,325,27,72,50,050,24,73,17,031,17,75,31,151,30,1*79\r\n'
b'$GLGSV,2,2,06,87,22,226,19,88,35,273,36,1*7A\r\n'
b'$GLGSV,1,1,04,66,03,285,,71,11,086,,74,47,078,,81,18,328,,0*7F\r\n'
b'$GAGSV,1,1,01,07,63,300,14,2*43\r\n'
b'$GAGSV,1,1,02,07,63,300,21,13,30,202,29,7*79\r\n'
b'$GAGSV,1,1,03,03,04,078,,25,09,035,,33,18,321,,0*4E\r\n'
b'$GBGSV,1,1,04,20,15,293,34,23,48,140,36,30,19,257,30,32,65,326,28,1*71\r\n'
b'$GNGLL,4048.50715,N,07357.72400,W,173603.00,A,D*69\r\n'
b'$GNRMC,173604.00,A,4048.50717,N,07357.72380,W,0.101,,291021,,,D,V*09\r\n'
b'$GNVTG,,T,,M,0.101,N,0.187,K,D*36\r\n'
b'$GNGGA,173604.00,4048.50717,N,07357.72380,W,2,12,0.94,327.9,M,-34.4,M,,0000*7F\r\n'
b'$GNGSA,A,3,23,44,32,10,12,18,,,,,,,1.63,0.94,1.34,1*05\r\n'
b'$GNGSA,A,3,87,73,65,88,,,,,,,,,1.63,0.94,1.34,2*05\r\n'
b'$GNGSA,A,3,07,13,,,,,,,,,,,1.63,0.94,1.34,3*09\r\n'
b'$GNGSA,A,3,20,23,32,30,,,,,,,,,1.63,0.94,1.34,4*0A\r\n'
b'$GPGSV,2,1,07,10,65,320,25,12,13,121,30,18,28,185,38,23,74,100,36,1*66\r\n'
b'$GPGSV,2,2,07,24,53,062,15,32,37,269,34,44,26,235,30,1*5F\r\n'
b'$GPGSV,1,1,02,12,13,121,14,23,74,100,14,6*61\r\n'
b'$GPGSV,2,1,06,08,01,300,,21,02,329,,25,05,151,,27,02,272,,0*64\r\n'
b'$GPGSV,2,2,06,27,02,272,,46,17,246,,0*67\r\n'
b'$GLGSV,2,1,06,65,50,325,27,72,50,050,24,73,17,031,18,75,31,151,30,1*76\r\n'
b'$GLGSV,2,2,06,87,22,226,19,88,35,273,37,1*7B\r\n'
b'$GLGSV,1,1,04,66,03,285,,71,11,086,,74,47,078,,81,18,328,,0*7F\r\n'
b'$GAGSV,1,1,01,07,63,300,14,2*43\r\n'
b'$GAGSV,1,1,02,07,63,300,22,13,30,202,28,7*7B\r\n'
b'$GAGSV,1,1,03,03,04,078,,25,09,034,,33,18,321,,0*4F\r\n'
b'$GBGSV,1,1,04,20,15,293,33,23,48,140,36,30,19,257,31,32,65,326,27,1*78\r\n'
b'$GNGLL,4048.50717,N,07357.72380,W,173604.00,A,D*63\r\n'
b'$GNRMC,173605.00,A,4048.50721,N,07357.72356,W,0.022,,291021,,,D,V*06\r\n'
b'$GNVTG,,T,,M,0.022,N,0.041,K,D*3D\r\n'
b'$GNGGA,173605.00,4048.50721,N,07357.72356,W,2,12,0.95,327.4,M,-34.4,M,,0000*7C\r\n'
b'$GNGSA,A,3,23,44,32,10,12,18,,,,,,,1.66,0.95,1.36,1*03\r\n'
b'$GNGSA,A,3,87,73,65,88,,,,,,,,,1.66,0.95,1.36,2*03\r\n'
b'$GNGSA,A,3,07,13,,,,,,,,,,,1.66,0.95,1.36,3*0F\r\n'
b'$GNGSA,A,3,20,23,32,30,,,,,,,,,1.66,0.95,1.36,4*0C\r\n'
b'$GPGSV,2,1,07,10,65,320,28,12,13,121,32,18,28,185,39,23,74,100,36,1*68\r\n'
b'$GPGSV,2,2,07,24,53,062,15,32,37,269,33,44,26,235,30,1*58\r\n'
b'$GPGSV,1,1,02,12,13,121,15,23,74,100,12,6*66\r\n'
b'$GPGSV,2,1,06,08,01,300,,21,02,329,,25,05,151,,27,02,272,,0*64\r\n'
b'$GPGSV,2,2,06,27,02,272,,46,17,246,,0*67\r\n'
b'$GLGSV,2,1,06,65,50,325,25,72,50,050,23,73,17,031,19,75,31,151,30,1*72\r\n'
b'$GLGSV,2,2,06,87,22,226,19,88,35,273,37,1*7B\r\n'
b'$GLGSV,1,1,04,66,03,285,,71,11,086,,74,47,078,,81,18,328,,0*7F\r\n'
b'$GAGSV,1,1,01,07,63,300,15,2*42\r\n'
b'$GAGSV,1,1,02,07,63,300,22,13,30,202,28,7*7B\r\n'
b'$GAGSV,1,1,03,03,04,078,,25,09,034,,33,18,321,,0*4F\r\n'
b'$GBGSV,1,1,04,20,15,293,33,23,48,140,35,30,19,257,31,32,65,326,26,1*7A\r\n'
b'$GNGLL,4048.50721,N,07357.72356,W,173605.00,A,D*6C\r\n'
b'$GNRMC,173606.00,A,4048.50726,N,07357.72329,W,0.054,,291021,,,D,V*0B\r\n'
b'$GNVTG,,T,,M,0.054,N,0.101,K,D*39\r\n'
b'$GNGGA,173606.00,4048.50726,N,07357.72329,W,2,12,0.95,326.7,M,-34.4,M,,0000*72\r\n'
b'$GNGSA,A,3,23,44,32,10,12,18,,,,,,,1.66,0.95,1.36,1*03\r\n'
b'$GNGSA,A,3,87,73,65,88,,,,,,,,,1.66,0.95,1.36,2*03\r\n'
b'$GNGSA,A,3,07,13,,,,,,,,,,,1.66,0.95,1.36,3*0F\r\n'
b'$GNGSA,A,3,20,23,32,30,,,,,,,,,1.66,0.95,1.36,4*0C\r\n'
b'$GPGSV,2,1,08,10,65,320,25,12,13,121,33,18,28,185,38,23,74,100,35,1*69\r\n'
b'$GPGSV,2,2,08,24,53,062,15,25,05,151,19,32,37,269,34,44,26,235,30,1*6F\r\n'
b'$GPGSV,1,1,02,12,13,121,15,23,74,100,13,6*67\r\n'
b'$GPGSV,2,1,05,08,01,300,,21,02,329,,27,02,272,,46,17,246,,0*64\r\n'
b'$GPGSV,2,2,05,46,17,246,,0*54\r\n'
b'$GLGSV,2,1,07,65,50,325,24,72,50,050,23,73,17,031,19,75,31,151,29,1*7A\r\n'
b'$GLGSV,2,2,07,81,18,328,25,87,22,226,20,88,35,273,37,1*4E\r\n'
b'$GLGSV,1,1,03,66,03,285,,71,11,086,,74,47,078,,0*41\r\n'
b'$GAGSV,1,1,01,07,63,300,15,2*42\r\n'
b'$GAGSV,1,1,02,07,63,300,21,13,30,202,30,7*71\r\n'
b'$GAGSV,1,1,03,03,04,078,,25,09,034,,33,18,321,,0*4F\r\n'
b'$GBGSV,1,1,04,20,15,293,32,23,48,140,40,30,19,257,31,32,65,326,26,1*79\r\n'
b'$GNGLL,4048.50726,N,07357.72329,W,173606.00,A,D*60\r\n'
b'$GNRMC,173607.00,A,4048.50730,N,07357.72305,W,0.075,,291021,,,D,V*00\r\n'
b'$GNVTG,,T,,M,0.075,N,0.138,K,D*30\r\n'
b'$GNGGA,173607.00,4048.50730,N,07357.72305,W,2,12,0.95,326.2,M,-34.4,M,,0000*7F\r\n'
b'$GNGSA,A,3,23,44,32,10,12,18,,,,,,,1.66,0.95,1.36,1*03\r\n'
b'$GNGSA,A,3,87,73,65,88,,,,,,,,,1.66,0.95,1.36,2*03\r\n'
b'$GNGSA,A,3,07,13,,,,,,,,,,,1.66,0.95,1.36,3*0F\r\n'
b'$GNGSA,A,3,20,23,32,30,,,,,,,,,1.66,0.95,1.36,4*0C\r\n'
b'$GPGSV,2,1,07,10,65,320,23,12,13,121,32,18,28,185,38,23,74,100,36,1*62\r\n'
b'$GPGSV,2,2,07,25,05,151,18,32,37,269,35,44,26,235,30,1*50\r\n'
b'$GPGSV,1,1,02,12,13,121,16,23,74,100,12,6*65\r\n'
b'$GPGSV,2,1,06,08,01,300,,21,02,329,,24,53,062,,27,02,272,,0*67\r\n'
b'$GPGSV,2,2,06,27,02,272,,46,17,246,,0*67\r\n'
b'$GLGSV,2,1,07,65,50,325,23,72,50,050,22,73,17,031,19,75,31,151,29,1*7C\r\n'
b'$GLGSV,2,2,07,81,18,328,25,87,22,226,21,88,35,273,37,1*4F\r\n'
b'$GLGSV,1,1,03,66,03,285,,71,11,086,,74,47,078,,0*41\r\n'
b'$GAGSV,1,1,01,07,63,300,16,2*41\r\n'
b'$GAGSV,1,1,02,07,63,300,18,13,30,202,31,7*7A\r\n'
b'$GAGSV,1,1,03,03,04,078,,25,09,034,,33,18,320,,0*4E\r\n'
b'$GBGSV,1,1,04,20,15,293,33,23,48,140,40,30,19,257,31,32,65,326,26,1*78\r\n'
b'$GNGLL,4048.50730,N,07357.72305,W,173607.00,A,D*68\r\n'
b'$GNRMC,173608.00,A,4048.50734,N,07357.72284,W,0.089,,291021,,,D,V*00\r\n'
b'$GNVTG,,T,,M,0.089,N,0.164,K,D*3A\r\n'
b'$GNGGA,173608.00,4048.50734,N,07357.72284,W,2,12,0.95,325.7,M,-34.4,M,,0000*7A\r\n'
b'$GNGSA,A,3,23,44,32,10,12,18,,,,,,,1.66,0.95,1.36,1*03\r\n'
b'$GNGSA,A,3,81,87,73,65,88,,,,,,,,1.66,0.95,1.36,2*0A\r\n'
b'$GNGSA,A,3,07,13,,,,,,,,,,,1.66,0.95,1.36,3*0F\r\n'
b'$GNGSA,A,3,20,23,32,30,,,,,,,,,1.66,0.95,1.36,4*0C\r\n'
b'$GPGSV,2,1,07,10,65,320,20,12,13,121,31,18,28,185,37,23,74,100,36,1*6D\r\n'
b'$GPGSV,2,2,07,25,05,151,19,32,37,269,35,44,26,235,29,1*59\r\n'
b'$GPGSV,1,1,01,12,13,121,16,6*56\r\n'
b'$GPGSV,2,1,06,08,01,300,,21,02,329,,24,53,062,,27,02,272,,0*67\r\n'
b'$GPGSV,2,2,06,27,02,272,,46,17,246,,0*67\r\n'
b'$GLGSV,2,1,07,65,50,325,21,72,50,050,20,73,17,031,19,75,31,151,28,1*7D\r\n'
b'$GLGSV,2,2,07,81,18,328,23,87,22,226,21,88,35,273,37,1*49\r\n'
b'$GLGSV,1,1,03,66,03,285,,71,11,086,,74,47,078,,0*41\r\n'
b'$GAGSV,1,1,01,07,63,300,16,2*41\r\n'
b'$GAGSV,1,1,02,07,63,300,20,13,30,202,30,7*70\r\n'
b'$GAGSV,1,1,03,03,04,078,,25,09,034,,33,18,320,,0*4E\r\n'
b'$GBGSV,1,1,04,20,15,293,33,23,48,140,38,30,19,257,31,32,65,326,25,1*74\r\n'
b'$GNGLL,4048.50734,N,07357.72284,W,173608.00,A,D*6B\r\n'
b'$GNRMC,173609.00,A,4048.50739,N,07357.72259,W,0.056,,291021,,,D,V*0E\r\n'
b'$GNVTG,,T,,M,0.056,N,0.103,K,D*39\r\n'
b'$GNGGA,173609.00,4048.50739,N,07357.72259,W,2,12,0.95,325.1,M,-34.4,M,,0000*70\r\n'
b'$GNGSA,A,3,23,44,32,10,12,18,,,,,,,1.66,0.95,1.36,1*03\r\n'
b'$GNGSA,A,3,81,87,73,65,88,,,,,,,,1.66,0.95,1.36,2*0A\r\n'
b'$GNGSA,A,3,07,13,,,,,,,,,,,1.66,0.95,1.36,3*0F\r\n'
b'$GNGSA,A,3,20,23,32,30,,,,,,,,,1.66,0.95,1.36,4*0C\r\n'
b'$GPGSV,2,1,07,10,65,320,23,12,13,121,33,18,28,185,37,23,74,100,36,1*6C\r\n'
b'$GPGSV,2,2,07,25,05,151,19,32,37,269,33,44,26,235,30,1*57\r\n'
b'$GPGSV,1,1,01,12,13,121,16,6*56\r\n'
b'$GPGSV,2,1,06,08,01,300,,21,02,329,,24,53,062,,27,02,272,,0*67\r\n'
b'$GPGSV,2,2,06,27,02,272,,46,17,246,,0*67\r\n'
b'$GLGSV,2,1,07,65,50,325,19,72,50,050,20,73,17,031,19,75,31,151,27,1*79\r\n'
b'$GLGSV,2,2,07,81,18,328,21,87,22,226,20,88,35,273,37,1*4A\r\n'
b'$GLGSV,1,1,03,66,03,285,,71,11,086,,74,47,078,,0*41\r\n'
b'$GAGSV,1,1,01,07,63,300,15,2*42\r\n'
b'$GAGSV,1,1,02,07,63,300,19,13,30,202,29,7*72\r\n'
b'$GAGSV,1,1,03,03,04,078,,25,09,034,,33,18,320,,0*4E\r\n'
b'$GBGSV,1,1,04,20,15,293,33,23,48,140,38,30,19,257,31,32,65,326,22,1*73\r\n'
b'$GNGLL,4048.50739,N,07357.72259,W,173609.00,A,D*67\r\n'
b'$GNRMC,173610.00,A,4048.50750,N,07357.72227,W,0.115,,291021,,,D,V*06\r\n'
b'$GNVTG,,T,,M,0.115,N,0.212,K,D*3C\r\n'
b'$GNGGA,173610.00,4048.50750,N,07357.72227,W,2,12,0.95,324.4,M,-34.4,M,,0000*7A\r\n'
b'$GNGSA,A,3,23,44,32,10,12,18,,,,,,,1.66,0.95,1.36,1*03\r\n'
b'$GNGSA,A,3,81,87,73,65,88,,,,,,,,1.66,0.95,1.36,2*0A\r\n'
b'$GNGSA,A,3,07,13,,,,,,,,,,,1.66,0.95,1.36,3*0F\r\n'
b'$GNGSA,A,3,20,23,32,30,,,,,,,,,1.66,0.95,1.36,4*0C\r\n'
b'$GPGSV,2,1,07,10,65,320,26,12,13,121,34,18,28,185,36,23,74,100,36,1*6F\r\n'
b'$GPGSV,2,2,07,25,05,151,20,32,37,269,33,44,26,235,30,1*5D\r\n'
b'$GPGSV,1,1,01,12,13,121,16,6*56\r\n'
b'$GPGSV,2,1,06,08,01,300,,21,02,329,,24,53,062,,27,02,272,,0*67\r\n'
b'$GPGSV,2,2,06,27,02,272,,46,17,246,,0*67\r\n'
b'$GLGSV,2,1,07,65,50,325,19,72,50,050,19,73,17,031,19,75,31,151,26,1*72\r\n'
b'$GLGSV,2,2,07,81,18,328,20,87,22,226,19,88,35,273,37,1*41\r\n'
b'$GLGSV,1,1,03,66,03,285,,71,11,086,,74,47,078,,0*41\r\n'
b'$GAGSV,1,1,01,07,63,300,16,2*41\r\n'
b'$GAGSV,1,1,02,07,63,300,18,13,30,202,29,7*73\r\n'
b'$GAGSV,1,1,03,03,04,078,,25,09,034,,33,18,320,,0*4E\r\n'
b'$GBGSV,1,1,04,20,16,293,33,23,48,140,37,30,19,257,31,32,65,326,19,1*77\r\n'
b'$GNGLL,4048.50750,N,07357.72227,W,173610.00,A,D*69\r\n'
b'$GNRMC,173611.00,A,4048.50758,N,07357.72199,W,0.083,,291021,,,D,V*07\r\n'
b'$GNVTG,,T,,M,0.083,N,0.155,K,D*32\r\n'
b'$GNGGA,173611.00,4048.50758,N,07357.72199,W,2,12,0.95,323.8,M,-34.4,M,,0000*7E\r\n'
b'$GNGSA,A,3,23,44,32,10,12,18,,,,,,,1.66,0.95,1.36,1*03\r\n'
b'$GNGSA,A,3,81,87,73,65,88,,,,,,,,1.66,0.95,1.36,2*0A\r\n'
b'$GNGSA,A,3,07,13,,,,,,,,,,,1.66,0.95,1.36,3*0F\r\n'
b'$GNGSA,A,3,20,23,32,30,,,,,,,,,1.66,0.95,1.36,4*0C\r\n'
b'$GPGSV,2,1,07,10,65,320,27,12,13,121,34,18,28,185,38,23,74,100,36,1*60\r\n'
b'$GPGSV,2,2,07,25,05,151,20,32,37,269,34,44,26,235,30,1*5A\r\n'
b'$GPGSV,1,1,01,12,13,121,16,6*56\r\n'
b'$GPGSV,2,1,06,08,01,300,,21,02,329,,24,53,062,,27,02,272,,0*67\r\n'
b'$GPGSV,2,2,06,27,02,272,,46,17,246,,0*67\r\n'
b'$GLGSV,2,1,07,65,50,325,21,72,50,050,18,73,17,031,19,75,31,151,24,1*7A\r\n'
b'$GLGSV,2,2,07,81,18,328,21,87,22,226,18,88,35,273,37,1*41\r\n'
b'$GLGSV,1,1,03,66,03,285,,71,11,086,,74,47,078,,0*41\r\n'
b'$GAGSV,1,1,01,07,63,300,15,2*42\r\n'
b'$GAGSV,1,1,02,07,63,300,18,13,30,202,29,7*73\r\n'
b'$GAGSV,1,1,03,03,04,078,,25,09,034,,33,18,320,,0*4E\r\n'
b'$GBGSV,1,1,04,20,16,293,32,23,48,139,37,30,19,257,32,32,65,326,17,1*75\r\n'
b'$GNGLL,4048.50758,N,07357.72199,W,173611.00,A,D*66\r\n'
b'$GNRMC,173612.00,A,4048.50763,N,07357.72182,W,0.089,,291021,,,D,V*0C\r\n'
b'$GNVTG,,T,,M,0.089,N,0.164,K,D*3A\r\n'
b'$GNGGA,173612.00,4048.50763,N,07357.72182,W,2,12,0.95,323.4,M,-34.4,M,,0000*73\r\n'
b'$GNGSA,A,3,23,44,32,10,12,18,,,,,,,1.66,0.95,1.36,1*03\r\n'
b'$GNGSA,A,3,81,87,73,65,88,,,,,,,,1.66,0.95,1.36,2*0A\r\n'
b'$GNGSA,A,3,07,13,,,,,,,,,,,1.66,0.95,1.36,3*0F\r\n'
b'$GNGSA,A,3,20,23,32,30,,,,,,,,,1.66,0.95,1.36,4*0C\r\n'
b'$GPGSV,2,1,07,10,65,320,26,12,13,121,32,18,28,185,38,23,74,100,36,1*67\r\n'
b'$GPGSV,2,2,07,25,05,151,19,32,37,269,35,44,26,235,29,1*59\r\n'
b'$GPGSV,1,1,01,12,13,121,15,6*55\r\n'
b'$GPGSV,2,1,06,08,01,300,,21,02,329,,24,53,062,,27,02,272,,0*67\r\n'
b'$GPGSV,2,2,06,27,02,272,,46,17,246,,0*67\r\n'
b'$GLGSV,2,1,07,65,50,325,24,72,50,050,17,73,17,031,19,75,31,151,21,1*75\r\n'
b'$GLGSV,2,2,07,81,18,328,23,87,22,226,17,88,35,273,36,1*4D\r\n'
b'$GLGSV,1,1,03,66,03,285,,71,11,086,,74,47,078,,0*41\r\n'
b'$GAGSV,1,1,01,07,63,300,16,2*41\r\n'
b'$GAGSV,1,1,02,07,63,300,21,13,30,202,28,7*78\r\n'
b'$GAGSV,1,1,03,03,04,078,,25,09,034,,33,18,320,,0*4E\r\n'
b'$GBGSV,1,1,04,20,16,293,31,23,48,139,36,30,19,257,33,32,65,326,16,1*77\r\n'
b'$GNGLL,4048.50763,N,07357.72182,W,173612.00,A,D*67\r\n'
b'$GNRMC,173613.00,A,4048.50767,N,07357.72167,W,0.118,,291021,,,D,V*0B\r\n'
b'$GNVTG,,T,,M,0.118,N,0.218,K,D*3B\r\n'
b'$GNGGA,173613.00,4048.50767,N,07357.72167,W,2,12,0.95,323.1,M,-34.4,M,,0000*78\r\n'
b'$GNGSA,A,3,23,44,32,10,12,18,,,,,,,1.66,0.95,1.36,1*03\r\n'
b'$GNGSA,A,3,81,87,73,65,88,,,,,,,,1.66,0.95,1.36,2*0A\r\n'
b'$GNGSA,A,3,07,13,,,,,,,,,,,1.66,0.95,1.36,3*0F\r\n'
b'$GNGSA,A,3,20,23,32,30,,,,,,,,,1.66,0.95,1.36,4*0C\r\n'
b'$GPGSV,2,1,07,10,65,320,26,12,13,121,31,18,28,185,37,23,74,100,36,1*6B\r\n'
b'$GPGSV,2,2,07,25,05,151,19,32,37,269,35,44,26,235,29,1*59\r\n'
b'$GPGSV,1,1,01,12,13,121,14,6*54\r\n'
b'$GPGSV,2,1,06,08,01,300,,21,02,329,,24,53,062,,27,02,272,,0*67\r\n'
b'$GPGSV,2,2,06,27,02,272,,46,17,246,,0*67\r\n'
b'$GLGSV,2,1,07,65,50,325,26,72,50,050,16,73,17,031,20,75,31,151,18,1*76\r\n'
b'$GLGSV,2,2,07,81,18,328,26,87,22,226,16,88,35,273,36,1*49\r\n'
b'$GLGSV,1,1,03,66,03,285,,71,11,086,,74,47,078,,0*41\r\n'
b'$GAGSV,1,1,01,07,63,300,15,2*42\r\n'
b'$GAGSV,1,1,02,07,63,300,23,13,30,202,28,7*7A\r\n'
b'$GAGSV,1,1,03,03,04,078,,25,09,034,,33,18,320,,0*4E\r\n'
b'$GBGSV,1,1,04,20,16,293,31,23,48,139,36,30,19,257,33,32,66,326,14,1*76\r\n'
b'$GNGLL,4048.50767,N,07357.72167,W,173613.00,A,D*69\r\n'
b'$GNRMC,173614.00,A,4048.50773,N,07357.72151,W,0.171,,291021,,,D,V*03\r\n'
b'$GNVTG,,T,,M,0.171,N,0.317,K,D*3A\r\n'
b'$GNGGA,173614.00,4048.50773,N,07357.72151,W,2,12,0.95,322.8,M,-34.4,M,,0000*77\r\n'
b'$GNGSA,A,3,23,44,32,10,12,18,,,,,,,1.66,0.95,1.36,1*03\r\n'
b'$GNGSA,A,3,81,87,73,65,88,,,,,,,,1.66,0.95,1.36,2*0A\r\n'
b'$GNGSA,A,3,07,13,,,,,,,,,,,1.66,0.95,1.36,3*0F\r\n'
b'$GNGSA,A,3,20,23,30,,,,,,,,,,1.66,0.95,1.36,4*0D\r\n'
b'$GPGSV,2,1,07,10,65,320,26,12,13,121,31,18,28,185,37,23,74,100,36,1*6B\r\n'
b'$GPGSV,2,2,07,25,05,151,18,32,37,269,35,44,26,235,29,1*58\r\n'
b'$GPGSV,1,1,01,12,13,121,15,6*55\r\n'
b'$GPGSV,2,1,06,08,01,300,,21,02,329,,24,53,062,,27,02,272,,0*67\r\n'
b'$GPGSV,2,2,06,27,02,272,,46,17,246,,0*67\r\n'
b'$GLGSV,2,1,07,65,51,326,27,72,50,050,15,73,17,031,21,75,31,151,14,1*7B\r\n'
b'$GLGSV,2,2,07,81,18,328,27,87,22,226,13,88,35,273,36,1*4D\r\n'
b'$GLGSV,1,1,03,66,03,285,,71,11,086,,74,47,078,,0*41\r\n'
b'$GAGSV,1,1,01,07,63,300,15,2*42\r\n'
b'$GAGSV,1,1,02,07,63,300,23,13,30,202,28,7*7A\r\n'
b'$GAGSV,1,1,03,03,04,078,,25,09,034,,33,18,320,,0*4E\r\n'
b'$GBGSV,1,1,03,20,16,293,30,23,48,139,36,30,19,257,33,1*43\r\n'
b'$GBGSV,1,1,01,32,66,326,,0*40\r\n'
b'$GNGLL,4048.50773,N,07357.72151,W,173614.00,A,D*6E\r\n'
b'$GNRMC,173615.00,A,4048.50777,N,07357.72136,W,0.109,,291021,,,D,V*08\r\n'
b'$GNVTG,,T,,M,0.109,N,0.203,K,D*31\r\n'
b'$GNGGA,173615.00,4048.50777,N,07357.72136,W,2,12,0.95,322.4,M,-34.4,M,,0000*7F\r\n'
b'$GNGSA,A,3,23,44,32,10,12,18,,,,,,,1.66,0.95,1.36,1*03\r\n'
b'$GNGSA,A,3,81,87,73,65,88,,,,,,,,1.66,0.95,1.36,2*0A\r\n'
b'$GNGSA,A,3,07,13,,,,,,,,,,,1.66,0.95,1.36,3*0F\r\n'
b'$GNGSA,A,3,20,23,30,,,,,,,,,,1.66,0.95,1.36,4*0D\r\n'
b'$GPGSV,2,1,08,10,65,320,26,12,13,121,31,18,28,185,37,23,74,100,36,1*64\r\n'
b'$GPGSV,2,2,08,25,05,151,17,27,02,272,18,32,37,269,36,44,26,235,29,1*62\r\n'
b'$GPGSV,1,1,01,12,13,121,15,6*55\r\n'
b'$GPGSV,2,1,05,08,01,300,,21,02,329,,24,53,062,,46,17,246,,0*60\r\n'
b'$GPGSV,2,2,05,46,17,246,,0*54\r\n'
b'$GLGSV,2,1,07,65,51,326,28,72,50,050,14,73,17,031,21,75,31,151,14,1*75\r\n'
b'$GLGSV,2,2,07,81,18,328,28,87,22,226,10,88,35,273,36,1*41\r\n'
b'$GLGSV,1,1,03,66,03,286,,71,11,086,,74,47,078,,0*42\r\n'
b'$GAGSV,1,1,01,07,63,300,15,2*42\r\n'
b'$GAGSV,1,1,02,07,63,300,24,13,30,202,28,7*7D\r\n'
b'$GAGSV,1,1,03,03,04,078,,25,09,034,,33,18,320,,0*4E\r\n'
b'$GBGSV,1,1,03,20,16,293,30,23,48,139,36,30,19,257,34,1*44\r\n'
b'$GBGSV,1,1,01,32,66,326,,0*40\r\n'
b'$GNGLL,4048.50777,N,07357.72136,W,173615.00,A,D*6A\r\n'
b'$GNRMC,173616.00,A,4048.50780,N,07357.72121,W,0.058,,291021,,,D,V*00\r\n'
b'$GNVTG,,T,,M,0.058,N,0.107,K,D*33\r\n'
b'$GNGGA,173616.00,4048.50780,N,07357.72121,W,2,12,0.95,322.1,M,-34.4,M,,0000*77\r\n'
b'$GNGSA,A,3,23,44,32,10,12,18,,,,,,,1.66,0.95,1.36,1*03\r\n'
b'$GNGSA,A,3,81,87,73,65,88,,,,,,,,1.66,0.95,1.36,2*0A\r\n'
b'$GNGSA,A,3,07,13,,,,,,,,,,,1.66,0.95,1.36,3*0F\r\n'
b'$GNGSA,A,3,20,23,30,,,,,,,,,,1.66,0.95,1.36,4*0D\r\n'
b'$GPGSV,2,1,08,10,65,320,27,12,13,121,31,18,28,185,37,23,74,100,36,1*65\r\n'
b'$GPGSV,2,2,08,25,05,151,17,27,02,272,18,32,37,269,36,44,26,235,29,1*62\r\n'
b'$GPGSV,1,1,01,12,13,121,16,6*56\r\n'
b'$GPGSV,2,1,05,08,01,300,,21,02,329,,24,53,062,,46,17,246,,0*60\r\n'
b'$GPGSV,2,2,05,46,17,246,,0*54\r\n'
b'$GLGSV,2,1,07,65,51,326,29,72,50,050,15,73,17,031,22,75,31,151,17,1*75\r\n'
b'$GLGSV,2,2,07,81,18,328,29,87,22,226,14,88,35,273,36,1*44\r\n'
b'$GLGSV,1,1,03,66,03,286,,71,11,086,,74,47,078,,0*42\r\n'
b'$GAGSV,1,1,01,07,63,300,16,2*41\r\n'
b'$GAGSV,1,1,02,07,63,300,25,13,30,202,28,7*7C\r\n'
b'$GAGSV,1,1,03,03,04,078,,25,09,034,,33,18,320,,0*4E\r\n'
b'$GBGSV,1,1,04,20,16,293,30,23,48,139,37,30,19,257,34,32,66,326,17,1*72\r\n'
b'$GNGLL,4048.50780,N,07357.72121,W,173616.00,A,D*67\r\n'
b'$GNRMC,173617.00,A,4048.50785,N,07357.72109,W,0.066,,291021,,,D,V*03\r\n'
b'$GNVTG,,T,,M,0.066,N,0.122,K,D*39\r\n'
b'$GNGGA,173617.00,4048.50785,N,07357.72109,W,2,12,0.95,321.7,M,-34.4,M,,0000*7C\r\n'
b'$GNGSA,A,3,23,44,32,10,12,18,,,,,,,1.66,0.95,1.36,1*03\r\n'
b'$GNGSA,A,3,81,87,73,65,88,,,,,,,,1.66,0.95,1.36,2*0A\r\n'
b'$GNGSA,A,3,07,13,,,,,,,,,,,1.66,0.95,1.36,3*0F\r\n'
b'$GNGSA,A,3,20,23,30,,,,,,,,,,1.66,0.95,1.36,4*0D\r\n'
b'$GPGSV,2,1,08,10,65,320,28,12,13,121,32,18,28,185,36,23,74,100,36,1*68\r\n'
b'$GPGSV,2,2,08,25,05,151,15,27,02,272,19,32,37,269,36,44,26,235,29,1*61\r\n'
b'$GPGSV,1,1,01,12,13,121,17,6*57\r\n'
b'$GPGSV,2,1,05,08,01,300,,21,02,329,,24,53,062,,46,17,246,,0*60\r\n'
b'$GPGSV,2,2,05,46,17,246,,0*54\r\n'
b'$GLGSV,2,1,07,65,51,326,29,72,50,050,16,73,17,031,23,75,31,151,21,1*72\r\n'
b'$GLGSV,2,2,07,81,18,328,29,87,22,226,15,88,35,273,35,1*46\r\n'
b'$GLGSV,1,1,03,66,03,286,,71,11,086,,74,47,078,,0*42\r\n'
b'$GAGSV,1,1,01,07,63,300,15,2*42\r\n'
b'$GAGSV,1,1,02,07,63,300,25,13,30,202,28,7*7C\r\n'
b'$GAGSV,1,1,03,03,04,078,,25,09,034,,33,18,320,,0*4E\r\n'
b'$GBGSV,1,1,04,20,16,293,30,23,48,139,37,30,19,257,34,32,66,326,19,1*7C\r\n'
b'$GNGLL,4048.50785,N,07357.72109,W,173617.00,A,D*69\r\n'
b'$GNRMC,173618.00,A,4048.50786,N,07357.72100,W,0.046,,291021,,,D,V*04\r\n'
b'$GNVTG,,T,,M,0.046,N,0.085,K,D*37\r\n'
b'$GNGGA,173618.00,4048.50786,N,07357.72100,W,2,12,0.95,321.5,M,-34.4,M,,0000*7B\r\n'
b'$GNGSA,A,3,23,44,32,10,12,18,,,,,,,1.66,0.95,1.36,1*03\r\n'
b'$GNGSA,A,3,81,87,73,65,88,,,,,,,,1.66,0.95,1.36,2*0A\r\n'
b'$GNGSA,A,3,07,13,,,,,,,,,,,1.66,0.95,1.36,3*0F\r\n'
b'$GNGSA,A,3,20,23,30,,,,,,,,,,1.66,0.95,1.36,4*0D\r\n'
b'$GPGSV,2,1,08,10,65,320,29,12,13,121,31,18,28,185,36,23,74,100,36,1*6A\r\n'
b'$GPGSV,2,2,08,25,05,151,13,27,02,272,19,32,37,269,37,44,26,235,29,1*66\r\n'
b'$GPGSV,1,1,01,12,13,121,16,6*56\r\n'
b'$GPGSV,2,1,05,08,01,300,,21,02,329,,24,53,062,,46,17,246,,0*60\r\n'
b'$GPGSV,2,2,05,46,17,246,,0*54\r\n'
b'$GLGSV,2,1,07,65,51,326,28,72,50,050,17,73,17,031,22,75,31,151,23,1*71\r\n'
b'$GLGSV,2,2,07,81,18,328,30,87,22,226,09,88,35,273,35,1*43\r\n'
b'$GLGSV,1,1,03,66,03,286,,71,11,086,,74,47,078,,0*42\r\n'
b'$GAGSV,1,1,01,07,63,300,15,2*42\r\n'
