b'$GPGSV,2,1,06,08,01,299,,21,03,329,\x00,25,06,150,,27,01,271,,0*66\r\n'
b'$GPGSV,2,2,06,27,01,271,,46,17,24\x006,,0*67\r\n'
b'$GLGSV,2,1,06,65,51,327,17,72,50,052,22,75,33,150,25,\x0081,18,327,25,1*7D\r\n'
b'$GLGSV,2,2,06,87,21,225,23,88,34,271,38,1*7E\r\n'
b'$GLGS\n'
b'$GNRMC,173937.00,A,4048.50928,N,07357.71642,W,0.029,,291021,,,D,V*07\r\n'
b'$GNVTG,,T,,M,0.029,N,0.054,K,D*32\r\n'
b'$GNGGA,173937.00,4048.50928,N,07357.71642,W,2,12,1.02,300.6,M,-34.4,M,,0000*7E\r\n'
b'$GNGSA,A,3,23,44,32,10,12,18,,,,,,,1.76,1.02,1.43,1*0F\r\n'
b'$GNGSA,A,3,87,65,81,88,,,,,,,,,1.76,1.02,1.43,2*02\r\n'
b'$GNGSA,A,3,07,13,,,,,,,,,,,1.76,1.02,1.43,3*03\r\n'
b'$GNGSA,A,3,20,23,32,,,,,,,,,,1.76,1.02,1.43,4*03\r\n'
b'$GPGSV,2,1,08,10,66,320,20,12,13,120,36,15,16,074,15,18,27,185,34,1*69\r\n'
b'$GPGSV,2,2,08,23,73,104,38,24,52,061,18,32,38,270,32,44,26,235,30,1*65\r\n'
b'$GPGSV,1,1,02,12,13,120,18,32,38,270,13,6*67\r\n'
b'$GPGSV,2,1,06,08,01,299,,21,03,329,,25,06,150,,27,01,271,,0*66\r\n'
b'$GPGSV,2,2,06,27,01,271,,46,17,246,,0*67\r\n'
b'$GLGSV,2,1,07,65,52,328,16,66,04,287,11,72,49,053,21,75,34,150,32,1*72\r\n'
b'$GLGSV,2,2,07,81,19,326,16,87,20,224,23,88,34,270,22,1*44\r\n'
b'$GLGSV,1,1,03,71,10,087,,73,16,030,,74,47,075,,0*40\r\n'
b'$GAGSV,1,1,02,07,64,302,26,13,28,202,20,7*7B\r\n'
b'$GAGSV,1,1,03,03,03,079,,25,08,034,,33,19,320,,0*48\r\n'
b'$GBGSV,1,1,04,20,17,294,32,23,49,138,39,30,18,256,20,32,67,328,31,1*76\r\n'
b'$GBGSV,1,1,01,30,18,256,08,3*46\r\n'
b'$GNGLL,4048.50928,N,07357.71642,W,173937.00,A,D*66\r\n'
b'$GNRMC,173938.00,A,4048.50925,N,07357.71645,W,0.025,,291021,,,D,V*0E\r\n'
b'$GNVTG,,T,,M,0.025,N,0.046,K,D*3D\r\n'
b'$GNGGA,173938.00,4048.50925,N,07357.71645,W,2,12,1.02,300.6,M,-34.4,M,,0000*7B\r\n'
b'$GNGSA,A,3,23,44,32,10,12,18,,,,,,,1.76,1.02,1.43,1*0F\r\n'
b'$GNGSA,A,3,87,65,81,88,,,,,,,,,1.76,1.02,1.43,2*02\r\n'
b'$GNGSA,A,3,07,13,,,,,,,,,,,1.76,1.02,1.43,3*03\r\n'
b'$GNGSA,A,3,20,23,32,,,,,,,,,,1.76,1.02,1.43,4*03\r\n'
b'$GPGSV,2,1,08,10,66,320,22,12,13,120,35,15,16,074,16,18,27,185,35,1*6A\r\n'
b'$GPGSV,2,2,08,23,73,104,38,24,52,061,18,32,38,270,32,44,26,235,29,1*6D\r\n'
b'$GPGSV,1,1,02,12,13,120,17,32,38,270,12,6*69\r\n'
b'$GPGSV,2,1,06,08,01,299,,21,03,329,,25,06,150,,27,01,271,,0*66\r\n'
b'$GPGSV,2,2,06,27,01,271,,46,17,246,,0*67\r\n'
b'$GLGSV,2,1,07,65,52,328,16,66,04,287,11,72,49,053,21,75,34,150,32,1*72\r\n'
b'$GLGSV,2,2,07,81,19,326,17,87,20,224,22,88,34,270,24,1*42\r\n'
b'$GLGSV,1,1,03,71,10,087,,73,16,030,,74,47,075,,0*40\r\n'
b'$GAGSV,1,1,02,07,64,302,27,13,28,202,22,7*78\r\n'
b'$GAGSV,1,1,03,03,03,079,,25,08,034,,33,19,320,,0*48\r\n'
b'$GBGSV,1,1,04,20,17,294,32,23,49,138,38,30,18,256,21,32,67,328,30,1*77\r\n'
b'$GBGSV,1,1,01,30,18,256,08,3*46\r\n'
b'$GNGLL,4048.50925,N,07357.71645,W,173938.00,A,D*63\r\n'
b'$GNRMC,173939.00,A,4048.50923,N,07357.71649,W,0.086,,291021,,,D,V*0C\r\n'
b'$GNVTG,,T,,M,0.086,N,0.160,K,D*31\r\n'
b'$GNGGA,173939.00,4048.50923,N,07357.71649,W,2,12,1.00,300.6,M,-34.4,M,,0000*72\r\n'
b'$GNGSA,A,3,23,44,32,10,12,18,,,,,,,1.71,1.00,1.39,1*07\r\n'
b'$GNGSA,A,3,87,65,81,88,,,,,,,,,1.71,1.00,1.39,2*0A\r\n'
b'$GNGSA,A,3,07,13,,,,,,,,,,,1.71,1.00,1.39,3*0B\r\n'
b'$GNGSA,A,3,20,23,32,30,,,,,,,,,1.71,1.00,1.39,4*08\r\n'
b'$GPGSV,2,1,08,10,66,320,22,12,13,120,35,15,16,074,17,18,27,185,34,1*6A\r\n'
b'$GPGSV,2,2,08,23,73,104,40,24,52,061,16,32,38,270,32,44,26,235,31,1*65\r\n'
b'$GPGSV,1,1,02,12,13,120,18,32,38,270,13,6*67\r\n'
b'$GPGSV,2,1,06,08,01,299,,21,03,329,,25,06,150,,27,01,271,,0*66\r\n'
b'$GPGSV,2,2,06,27,01,271,,46,17,246,,0*67\r\n'
b'$GLGSV,2,1,07,65,52,328,18,66,04,287,09,72,49,053,19,75,34,150,33,1*7F\r\n'
b'$GLGSV,2,2,07,81,19,326,18,87,20,224,20,88,34,270,26,1*4D\r\n'
b'$GLGSV,1,1,03,71,10,087,,73,16,030,,74,47,075,,0*40\r\n'
b'$GAGSV,1,1,02,07,64,302,28,13,28,202,22,7*77\r\n'
b'$GAGSV,1,1,03,03,03,079,,25,08,034,,33,19,320,,0*48\r\n'
b'$GBGSV,1,1,04,20,17,294,33,23,49,138,36,30,18,256,20,32,67,328,30,1*79\r\n'
b'$GBGSV,1,1,01,30,18,256,09,3*47\r\n'
b'$GNGLL,4048.50923,N,07357.71649,W,173939.00,A,D*68\r\n'
b'$GNRMC,173940.00,A,4048.50919,N,07357.71651,W,0.078,,291021,,,D,V*03\r\n'
b'$GNVTG,,T,,M,0.078,N,0.144,K,D*36\r\n'
b'$GNGGA,173940.00,4048.50919,N,07357.71651,W,2,12,1.00,300.6,M,-34.4,M,,0000*7C\r\n'
b'$GNGSA,A,3,23,44,32,10,12,18,,,,,,,1.71,1.00,1.39,1*07\r\n'
b'$GNGSA,A,3,87,65,81,88,,,,,,,,,1.71,1.00,1.39,2*0A\r\n'
b'$GNGSA,A,3,07,13,,,,,,,,,,,1.71,1.00,1.39,3*0B\r\n'
b'$GNGSA,A,3,20,23,32,30,,,,,,,,,1.71,1.00,1.39,4*08\r\n'
b'$GPGSV,2,1,07,10,66,320,21,12,13,120,33,15,16,074,18,18,27,185,35,1*6E\r\n'
b'$GPGSV,2,2,07,23,73,104,40,32,38,270,31,44,26,235,32,1*5B\r\n'
b'$GPGSV,1,1,01,18,27,185,14,5*54\r\n'
b'$GPGSV,1,1,02,12,13,120,17,32,38,270,14,6*6F\r\n'
b'$GPGSV,2,1,07,08,01,299,,21,03,329,,24,52,061,,25,06,150,,0*61\r\n'
b'$GPGSV,2,2,07,25,06,150,,27,01,271,,46,17,246,,0*53\r\n'
b'$GLGSV,2,1,07,65,52,328,19,66,04,287,10,72,49,053,19,75,34,150,33,1*76\r\n'
b'$GLGSV,2,2,07,81,19,326,18,87,20,224,20,88,34,270,27,1*4C\r\n'
b'$GLGSV,1,1,03,71,10,087,,73,16,030,,74,47,075,,0*40\r\n'
b'$GAGSV,1,1,02,07,64,302,29,13,28,202,23,7*77\r\n'
b'$GAGSV,1,1,03,03,03,079,,25,08,034,,33,19,320,,0*48\r\n'
b'$GBGSV,1,1,04,20,17,294,33,23,49,138,36,30,18,256,20,32,67,328,30,1*79\r\n'
b'$GNGLL,4048.50919,N,07357.71651,W,173940.00,A,D*66\r\n'
b'$GNRMC,173941.00,A,4048.50920,N,07357.71650,W,0.091,,291021,,,D,V*0E\r\n'
b'$GNVTG,,T,,M,0.091,N,0.168,K,D*3F\r\n'
b'$GNGGA,173941.00,4048.50920,N,07357.71650,W,2,12,1.00,300.5,M,-34.4,M,,0000*75\r\n'
b'$GNGSA,A,3,23,44,32,10,12,18,,,,,,,1.71,1.00,1.39,1*07\r\n'
b'$GNGSA,A,3,87,65,81,88,,,,,,,,,1.71,1.00,1.39,2*0A\r\n'
b'$GNGSA,A,3,07,13,,,,,,,,,,,1.71,1.00,1.39,3*0B\r\n'
b'$GNGSA,A,3,20,23,32,30,,,,,,,,,1.71,1.00,1.39,4*08\r\n'
b'$GPGSV,2,1,07,10,66,320,20,12,13,120,34,15,16,074,19,18,27,185,31,1*6D\r\n'
b'$GPGSV,2,2,07,23,73,104,41,32,38,270,35,44,26,235,30,1*5C\r\n'
b'$GPGSV,1,1,03,12,13,120,17,18,27,185,13,32,38,270,14,6*5C\r\n'
b'$GPGSV,2,1,07,08,01,298,,21,03,329,,24,52,061,,25,06,150,,0*60\r\n'
b'$GPGSV,2,2,07,25,06,150,,27,01,271,,46,17,246,,0*53\r\n'
b'$GLGSV,2,1,07,65,52,328,20,66,04,287,08,72,49,053,18,75,34,150,33,1*74\r\n'
b'$GLGSV,2,2,07,81,19,326,17,87,20,224,21,88,34,270,25,1*40\r\n'
b'$GLGSV,1,1,03,71,10,087,,73,16,030,,74,47,075,,0*40\r\n'
b'$GAGSV,1,1,02,07,64,302,29,13,28,202,24,7*70\r\n'
b'$GAGSV,1,1,03,03,03,079,,25,08,034,,33,19,320,,0*48\r\n'
b'$GBGSV,1,1,04,20,17,294,32,23,49,138,39,30,18,256,18,32,67,328,30,1*7C\r\n'
b'$GNGLL,4048.50920,N,07357.71650,W,173941.00,A,D*6C\r\n'
b'$GNRMC,173942.00,A,4048.50921,N,07357.71650,W,0.122,,291021,,,D,V*05\r\n'
b'$GNVTG,,T,,M,0.122,N,0.225,K,D*3C\r\n'
b'$GNGGA,173942.00,4048.50921,N,07357.71650,W,2,12,1.00,300.5,M,-34.4,M,,0000*77\r\n'
b'$GNGSA,A,3,23,44,32,10,12,18,,,,,,,1.71,1.00,1.39,1*07\r\n'
b'$GNGSA,A,3,87,65,81,88,,,,,,,,,1.71,1.00,1.39,2*0A\r\n'
b'$GNGSA,A,3,07,13,,,,,,,,,,,1.71,1.00,1.39,3*0B\r\n'
b'$GNGSA,A,3,20,23,32,30,,,,,,,,,1.71,1.00,1.39,4*08\r\n'
b'$GPGSV,2,1,07,10,66,320,20,12,13,120,34,15,16,074,19,18,27,185,30,1*6C\r\n'
b'$GPGSV,2,2,07,23,73,104,41,32,38,270,34,44,26,235,28,1*54\r\n'
b'$GPGSV,1,1,02,12,13,120,17,32,38,270,14,6*6F\r\n'
b'$GPGSV,2,1,07,08,01,298,,21,03,329,,24,52,061,,25,06,150,,0*60\r\n'
b'$GPGSV,2,2,07,25,06,150,,27,01,271,,46,17,246,,0*53\r\n'
b'$GLGSV,2,1,07,65,52,328,20,66,04,287,07,72,49,053,15,75,34,150,33,1*76\r\n'
b'$GLGSV,2,2,07,81,19,326,16,87,20,224,23,88,34,270,24,1*42\r\n'
b'$GLGSV,1,1,03,71,10,087,,73,16,030,,74,47,075,,0*40\r\n'
b'$GAGSV,1,1,02,07,64,302,31,13,28,202,24,7*79\r\n'
b'$GAGSV,1,1,03,03,03,079,,25,08,034,,33,19,320,,0*48\r\n'
b'$GBGSV,1,1,04,20,17,294,33,23,49,138,37,30,18,256,19,32,67,328,30,1*72\r\n'
b'$GNGLL,4048.50921,N,07357.71650,W,173942.00,A,D*6E\r\n'
b'$GNRMC,173943.00,A,4048.50913,N,07357.71653,W,0.233,,291021,,,D,V*05\r\n'
b'$GNVTG,,T,,M,0.233,N,0.432,K,D*3F\r\n'
b'$GNGGA,173943.00,4048.50913,N,07357.71653,W,2,12,0.99,300.5,M,-34.4,M,,0000*75\r\n'
b'$GNGSA,A,3,23,44,32,10,12,18,,,,,,,1.68,0.99,1.36,1*01\r\n'
b'$GNGSA,A,3,87,65,81,88,,,,,,,,,1.68,0.99,1.36,2*0C\r\n'
b'$GNGSA,A,3,07,13,,,,,,,,,,,1.68,0.99,1.36,3*0D\r\n'
b'$GNGSA,A,3,20,23,32,30,,,,,,,,,1.68,0.99,1.36,4*0E\r\n'
b'$GPGSV,2,1,07,10,67,321,25,12,13,120,31,15,16,074,19,18,27,185,34,1*68\r\n'
b'$GPGSV,2,2,07,23,73,104,40,32,38,270,34,44,26,235,29,1*54\r\n'
b'$GPGSV,1,1,01,12,13,120,17,6*56\r\n'
b'$GPGSV,2,1,07,08,01,298,,21,03,329,,24,52,061,,25,06,150,,0*60\r\n'
b'$GPGSV,2,2,07,25,06,150,,27,01,271,,46,17,246,,0*53\r\n'
b'$GLGSV,2,1,06,65,52,328,20,66,04,287,10,75,34,150,32,81,19,326,16,1*7B\r\n'
b'$GLGSV,2,2,06,87,20,224,24,88,34,270,23,1*72\r\n'
b'$GLGSV,1,1,04,71,10,087,,72,49,053,,73,16,030,,74,47,075,,0*79\r\n'
b'$GAGSV,1,1,02,07,64,302,31,13,28,202,25,7*78\r\n'
b'$GAGSV,1,1,03,03,03,079,,25,08,034,,33,19,320,,0*48\r\n'
b'$GBGSV,1,1,04,20,17,294,32,23,49,138,41,30,18,256,19,32,67,328,30,1*72\r\n'
b'$GNGLL,4048.50913,N,07357.71653,W,173943.00,A,D*6D\r\n'
b'$GNRMC,173944.00,A,4048.50906,N,07357.71654,W,0.103,,291021,,,D,V*01\r\n'
b'$GNVTG,,T,,M,0.103,N,0.191,K,D*33\r\n'
b'$GNGGA,173944.00,4048.50906,N,07357.71654,W,2,12,1.00,300.5,M,-34.4,M,,0000*70\r\n'
b'$GNGSA,A,3,23,44,32,10,12,18,,,,,,,1.71,1.00,1.39,1*07\r\n'
b'$GNGSA,A,3,87,65,81,88,,,,,,,,,1.71,1.00,1.39,2*0A\r\n'
b'$GNGSA,A,3,07,13,,,,,,,,,,,1.71,1.00,1.39,3*0B\r\n'
b'$GNGSA,A,3,20,23,32,30,,,,,,,,,1.71,1.00,1.39,4*08\r\n'
b'$GPGSV,2,1,07,10,67,321,25,12,13,120,32,15,16,074,19,18,27,185,37,1*68\r\n'
b'$GPGSV,2,2,07,23,73,104,40,32,38,270,37,44,26,235,29,1*57\r\n'
b'$GPGSV,1,1,01,12,13,120,18,6*59\r\n'
b'$GPGSV,2,1,07,08,01,298,,21,03,329,,24,52,061,,25,06,150,,0*60\r\n'
b'$GPGSV,2,2,07,25,06,150,,27,01,271,,46,17,246,,0*53\r\n'
b'$GLGSV,2,1,06,65,52,328,18,66,04,287,09,75,34,150,31,81,19,326,18,1*75\r\n'
b'$GLGSV,2,2,06,87,20,224,22,88,34,270,29,1*7E\r\n'
b'$GLGSV,1,1,04,71,10,087,,72,49,053,,73,16,030,,74,47,075,,0*79\r\n'
b'$GAGSV,1,1,02,07,64,302,27,13,28,202,25,7*7F\r\n'
b'$GAGSV,1,1,03,03,03,079,,25,08,034,,33,19,320,,0*48\r\n'
b'$GBGSV,1,1,04,20,17,294,27,23,49,138,36,30,18,256,18,32,67,328,30,1*77\r\n'
b'$GNGLL,4048.50906,N,07357.71654,W,173944.00,A,D*69\r\n'
b'$GNRMC,173945.00,A,4048.50905,N,07357.71655,W,0.027,,291021,,,D,V*05\r\n'
b'$GNVTG,,T,,M,0.027,N,0.051,K,D*39\r\n'
b'$GNGGA,173945.00,4048.50905,N,07357.71655,W,2,12,0.99,300.5,M,-34.4,M,,0000*72\r\n'
b'$GNGSA,A,3,23,44,32,10,12,18,,,,,,,1.71,0.99,1.39,1*06\r\n'
b'$GNGSA,A,3,87,65,81,88,,,,,,,,,1.71,0.99,1.39,2*0B\r\n'
b'$GNGSA,A,3,07,13,,,,,,,,,,,1.71,0.99,1.39,3*0A\r\n'
b'$GNGSA,A,3,20,23,32,30,,,,,,,,,1.71,0.99,1.39,4*09\r\n'
b'$GPGSV,2,1,07,10,67,321,23,12,14,120,35,15,16,074,18,18,27,185,36,1*6E\r\n'
b'$GPGSV,2,2,07,23,73,104,40,32,38,270,36,44,26,235,29,1*56\r\n'
b'$GPGSV,1,1,01,12,14,120,18,6*5E\r\n'
b'$GPGSV,2,1,07,08,01,298,,21,03,329,,24,52,061,,25,06,150,,0*60\r\n'
b'$GPGSV,2,2,07,25,06,150,,27,01,271,,46,17,246,,0*53\r\n'
b'$GLGSV,2,1,06,65,52,328,16,66,04,287,10,75,34,150,32,81,19,326,19,1*71\r\n'
b'$GLGSV,2,2,06,87,20,224,22,88,34,270,30,1*76\r\n'
b'$GLGSV,1,1,04,71,10,087,,72,49,053,,73,16,030,,74,47,075,,0*79\r\n'
b'$GAGSV,1,1,02,07,64,302,31,13,28,202,26,7*7B\r\n'
b'$GAGSV,1,1,03,03,03,079,,25,08,034,,33,19,320,,0*48\r\n'
b'$GBGSV,1,1,04,20,17,294,35,23,49,138,38,30,18,256,20,32,67,328,29,1*79\r\n'
b'$GNGLL,4048.50905,N,07357.71655,W,173945.00,A,D*6A\r\n'
b'$GNRMC,173946.00,A,4048.50907,N,07357.71656,W,0.071,,291021,,,D,V*04\r\n'
b'$GNVTG,,T,,M,0.071,N,0.131,K,D*3D\r\n'
b'$GNGGA,173946.00,4048.50907,N,07357.71656,W,2,12,1.00,300.4,M,-34.4,M,,0000*70\r\n'
b'$GNGSA,A,3,23,44,32,10,12,18,,,,,,,1.75,1.00,1.43,1*0E\r\n'
b'$GNGSA,A,3,87,65,81,88,,,,,,,,,1.75,1.00,1.43,2*03\r\n'
b'$GNGSA,A,3,07,13,,,,,,,,,,,1.75,1.00,1.43,3*02\r\n'
b'$GNGSA,A,3,20,23,32,,,,,,,,,,1.75,1.00,1.43,4*02\r\n'
b'$GPGSV,2,1,07,10,67,321,22,12,14,120,35,15,16,074,17,18,27,185,36,1*60\r\n'
b'$GPGSV,2,2,07,23,73,104,40,32,38,270,35,44,26,235,30,1*5D\r\n'
b'$GPGSV,1,1,01,12,14,120,18,6*5E\r\n'
b'$GPGSV,2,1,07,08,01,298,,21,03,329,,24,52,061,,25,06,150,,0*60\r\n'
b'$GPGSV,2,2,07,25,06,150,,27,01,271,,46,17,246,,0*53\r\n'
b'$GLGSV,2,1,06,65,52,328,14,66,04,287,10,75,34,150,30,81,19,326,21,1*7A\r\n'
b'$GLGSV,2,2,06,87,20,224,21,88,34,270,30,1*75\r\n'
b'$GLGSV,1,1,04,71,10,087,,72,49,053,,73,16,030,,74,47,075,,0*79\r\n'
b'$GAGSV,1,1,02,07,64,302,31,13,28,202,25,7*78\r\n'
b'$GAGSV,1,1,03,03,03,079,,25,08,034,,33,19,320,,0*48\r\n'
b'$GBGSV,1,1,03,20,17,294,35,23,49,138,39,32,67,328,27,1*48\r\n'
b'$GBGSV,1,1,01,30,18,256,,0*4D\r\n'
b'$GNGLL,4048.50907,N,07357.71656,W,173946.00,A,D*68\r\n'
b'$GNRMC,173947.00,A,4048.50909,N,07357.71657,W,0.216,,291021,,,D,V*09\r\n'
b'$GNVTG,,T,,M,0.216,N,0.400,K,D*39\r\n'
b'$GNGGA,173947.00,4048.50909,N,07357.71657,W,2,12,1.02,300.4,M,-34.4,M,,0000*7C\r\n'
b'$GNGSA,A,3,23,44,32,10,12,18,,,,,,,1.73,1.02,1.40,1*09\r\n'
b'$GNGSA,A,3,87,65,81,88,,,,,,,,,1.73,1.02,1.40,2*04\r\n'
b'$GNGSA,A,3,07,13,,,,,,,,,,,1.73,1.02,1.40,3*05\r\n'
b'$GNGSA,A,3,20,23,32,,,,,,,,,,1.73,1.02,1.40,4*05\r\n'
b'$GPGSV,2,1,07,10,67,321,24,12,14,120,35,15,16,074,19,18,27,185,36,1*68\r\n'
b'$GPGSV,2,2,07,23,73,104,39,32,38,270,34,44,26,235,30,1*52\r\n'
b'$GPGSV,1,1,01,12,14,120,17,6*51\r\n'
b'$GPGSV,2,1,07,08,01,298,,21,03,329,,24,52,061,,25,06,150,,0*60\r\n'
b'$GPGSV,2,2,07,25,06,150,,27,01,271,,46,17,246,,0*53\r\n'
b'$GLGSV,2,1,06,65,52,328,15,66,04,287,09,75,34,150,29,81,19,326,23,1*79\r\n'
b'$GLGSV,2,2,06,87,20,224,21,88,34,270,30,1*75\r\n'
b'$GLGSV,1,1,04,71,10,087,,72,49,053,,73,16,030,,74,47,075,,0*79\r\n'
b'$GAGSV,1,1,02,07,64,302,32,13,28,202,25,7*7B\r\n'
b'$GAGSV,1,1,03,03,03,079,,25,08,034,,33,19,320,,0*48\r\n'
b'$GBGSV,1,1,04,20,17,294,35,23,49,138,39,30,18,256,18,32,67,328,26,1*7C\r\n'
b'$GNGLL,4048.50909,N,07357.71657,W,173947.00,A,D*66\r\n'
b'$GNRMC,173948.00,A,4048.50907,N,07357.71660,W,0.204,,291021,,,D,V*0F\r\n'
b'$GNVTG,,T,,M,0.204,N,0.377,K,D*3D\r\n'
b'$GNGGA,173948.00,4048.50907,N,07357.71660,W,2,12,1.02,300.4,M,-34.4,M,,0000*79\r\n'
b'$GNGSA,A,3,23,44,32,10,12,18,,,,,,,1.73,1.02,1.40,1*09\r\n'
b'$GNGSA,A,3,87,65,81,88,,,,,,,,,1.73,1.02,1.40,2*04\r\n'
b'$GNGSA,A,3,07,13,,,,,,,,,,,1.73,1.02,1.40,3*05\r\n'
b'$GNGSA,A,3,20,23,32,,,,,,,,,,1.73,1.02,1.40,4*05\r\n'
b'$GPGSV,2,1,07,10,67,321,26,12,14,120,32,15,16,074,20,18,27,185,36,1*67\r\n'
b'$GPGSV,2,2,07,23,73,104,39,32,38,270,35,44,26,235,31,1*52\r\n'
b'$GPGSV,1,1,01,32,38,270,15,5*5A\r\n'
b'$GPGSV,1,1,01,12,14,120,17,6*51\r\n'
b'$GPGSV,2,1,07,08,01,298,,21,03,329,,24,52,061,,25,06,150,,0*60\r\n'
b'$GPGSV,2,2,07,25,06,150,,27,01,271,,46,17,246,,0*53\r\n'
b'$GLGSV,2,1,06,65,52,328,15,66,04,287,08,75,34,150,29,81,19,326,23,1*78\r\n'
b'$GLGSV,2,2,06,87,20,224,20,88,34,270,30,1*74\r\n'
b'$GLGSV,1,1,04,71,10,087,,72,49,053,,73,16,030,,74,47,075,,0*79\r\n'
b'$GAGSV,1,1,02,07,64,302,32,13,28,202,26,7*78\r\n'
b'$GAGSV,1,1,03,03,03,079,,25,08,034,,33,19,320,,0*48\r\n'
b'$GBGSV,1,1,04,20,17,294,34,23,49,138,37,30,18,256,19,32,67,328,26,1*72\r\n'
b'$GNGLL,4048.50907,N,07357.71660,W,173948.00,A,D*63\r\n'
b'$GNRMC,173949.00,A,4048.50909,N,07357.71656,W,0.146,,291021,,,D,V*00\r\n'
b'$GNVTG,,T,,M,0.146,N,0.270,K,D*3E\r\n'
b'$GNGGA,173949.00,4048.50909,N,07357.71656,W,2,12,1.00,300.3,M,-34.4,M,,0000*76\r\n'
b'$GNGSA,A,3,23,44,32,10,12,18,,,,,,,1.71,1.00,1.40,1*09\r\n'
b'$GNGSA,A,3,87,65,81,88,,,,,,,,,1.71,1.00,1.40,2*04\r\n'
b'$GNGSA,A,3,07,13,,,,,,,,,,,1.71,1.00,1.40,3*05\r\n'
b'$GNGSA,A,3,20,23,32,,,,,,,,,,1.71,1.00,1.40,4*05\r\n'
b'$GPGSV,2,1,07,10,67,321,24,12,14,120,33,15,16,074,20,18,27,185,36,1*64\r\n'
b'$GPGSV,2,2,07,23,73,104,39,32,38,270,35,44,26,235,31,1*52\r\n'
b'$GPGSV,1,1,02,12,14,120,16,32,38,270,12,6*6F\r\n'
b'$GPGSV,2,1,07,08,01,298,,21,03,329,,24,52,061,,25,06,150,,0*60\r\n'
b'$GPGSV,2,2,07,25,06,150,,27,01,271,,46,17,246,,0*53\r\n'
b'$GLGSV,2,1,06,65,52,328,17,66,04,287,08,75,34,150,29,81,19,326,22,1*7B\r\n'
b'$GLGSV,2,2,06,87,20,224,20,88,34,270,32,1*76\r\n'
b'$GLGSV,1,1,04,71,10,087,,72,49,053,,73,16,030,,74,47,075,,0*79\r\n'
b'$GAGSV,1,1,02,07,64,302,32,13,28,202,27,7*79\r\n'
b'$GAGSV,1,1,03,03,03,079,,25,08,034,,33,19,320,,0*48\r\n'
b'$GBGSV,1,1,04,20,17,294,34,23,49,138,35,30,18,256,20,32,67,328,25,1*79\r\n'
b'$GNGLL,4048.50909,N,07357.71656,W,173949.00,A,D*69\r\n'
b'$GNRMC,173950.00,A,4048.50908,N,07357.71654,W,0.165,,291021,,,D,V*0A\r\n'
b'$GNVTG,,T,,M,0.165,N,0.306,K,D*3F\r\n'
b'$GNGGA,173950.00,4048.50908,N,07357.71654,W,2,12,1.00,300.3,M,-34.4,M,,0000*7D\r\n'
b'$GNGSA,A,3,23,44,32,10,12,18,,,,,,,1.71,1.00,1.40,1*09\r\n'
b'$GNGSA,A,3,87,65,81,88,,,,,,,,,1.71,1.00,1.40,2*04\r\n'
b'$GNGSA,A,3,07,13,,,,,,,,,,,1.71,1.00,1.40,3*05\r\n'
b'$GNGSA,A,3,20,23,32,30,,,,,,,,,1.71,1.00,1.40,4*06\r\n'
b'$GPGSV,2,1,07,10,67,321,25,12,14,120,32,15,16,074,20,18,27,185,36,1*64\r\n'
b'$GPGSV,2,2,07,23,73,104,39,32,38,270,35,44,26,235,30,1*53\r\n'
b'$GPGSV,1,1,02,12,14,120,17,32,38,270,10,6*6C\r\n'
b'$GPGSV,2,1,07,08,01,298,,21,03,329,,24,52,061,,25,06,150,,0*60\r\n'
b'$GPGSV,2,2,07,25,06,150,,27,01,271,,46,17,246,,0*53\r\n'
b'$GLGSV,2,1,06,65,52,328,19,66,04,287,08,75,34,150,29,81,19,326,21,1*76\r\n'
b'$GLGSV,2,2,06,87,20,224,18,88,34,270,32,1*7D\r\n'
b'$GLGSV,1,1,04,71,10,087,,72,49,053,,73,16,030,,74,47,075,,0*79\r\n'
b'$GAGSV,1,1,02,07,64,302,31,13,28,202,27,7*7A\r\n'
b'$GAGSV,1,1,03,03,03,079,,25,08,034,,33,19,320,,0*48\r\n'
b'$GBGSV,1,1,04,20,17,294,34,23,49,138,35,30,18,256,20,32,67,328,25,1*79\r\n'
b'$GNGLL,4048.50908,N,07357.71654,W,173950.00,A,D*62\r\n'
b'$GNRMC,173951.00,A,4048.50908,N,07357.71654,W,0.158,,291021,,,D,V*05\r\n'
b'$GNVTG,,T,,M,0.158,N,0.292,K,D*3D\r\n'
b'$GNGGA,173951.00,4048.50908,N,07357.71654,W,2,12,1.02,300.3,M,-34.4,M,,0000*7E\r\n'
b'$GNGSA,A,3,23,44,32,10,12,18,,,,,,,1.73,1.02,1.40,1*09\r\n'
b'$GNGSA,A,3,87,65,81,88,,,,,,,,,1.73,1.02,1.40,2*04\r\n'
b'$GNGSA,A,3,07,13,,,,,,,,,,,1.73,1.02,1.40,3*05\r\n'
b'$GNGSA,A,3,20,23,32,30,,,,,,,,,1.73,1.02,1.40,4*06\r\n'
b'$GPGSV,2,1,07,10,67,321,25,12,14,120,32,15,16,074,21,18,26,185,36,1*64\r\n'
b'$GPGSV,2,2,07,23,73,104,39,32,38,270,35,44,26,235,30,1*53\r\n'
b'$GPGSV,1,1,02,12,14,120,16,32,38,270,08,6*64\r\n'
b'$GPGSV,2,1,07,08,01,298,,21,03,329,,24,52,061,,25,06,150,,0*60\r\n'
b'$GPGSV,2,2,07,25,06,150,,27,01,271,,46,17,246,,0*53\r\n'
b'$GLGSV,2,1,06,65,52,328,19,66,04,287,09,75,34,150,27,81,19,326,21,1*79\r\n'
b'$GLGSV,2,2,06,87,20,224,17,88,34,270,33,1*73\r\n'
b'$GLGSV,1,1,04,71,10,087,,72,49,053,,73,16,030,,74,47,075,,0*79\r\n'
b'$GAGSV,1,1,02,07,64,302,31,13,28,202,27,7*7A\r\n'
b'$GAGSV,1,1,03,03,03,079,,25,08,034,,33,19,320,,0*48\r\n'
b'$GBGSV,1,1,04,20,17,294,34,23,49,138,38,30,18,256,19,32,67,328,25,1*7E\r\n'
b'$GNGLL,4048.50908,N,07357.71654,W,173951.00,A,D*63\r\n'
b'$GNRMC,173952.00,A,4048.50911,N,07357.71652,W,0.055,,291021,,,D,V*04\r\n'
b'$GNVTG,,T,,M,0.055,N,0.101,K,D*38\r\n'
b'$GNGGA,173952.00,4048.50911,N,07357.71652,W,2,12,1.00,300.2,M,-34.4,M,,0000*70\r\n'
b'$GNGSA,A,3,23,44,32,10,12,18,,,,,,,1.71,1.00,1.40,1*09\r\n'
b'$GNGSA,A,3,87,65,81,88,,,,,,,,,1.71,1.00,1.40,2*04\r\n'
b'$GNGSA,A,3,07,13,,,,,,,,,,,1.71,1.00,1.40,3*05\r\n'
b'$GNGSA,A,3,20,23,32,30,,,,,,,,,1.71,1.00,1.40,4*06\r\n'
b'$GPGSV,2,1,07,10,67,321,25,12,14,120,33,15,16,074,21,18,26,185,35,1*66\r\n'
b'$GPGSV,2,2,07,23,73,104,39,32,38,270,35,44,26,235,30,1*53\r\n'
b'$GPGSV,1,1,02,12,14,120,16,32,38,270,10,6*6D\r\n'
b'$GPGSV,2,1,07,08,01,298,,21,03,329,,24,52,061,,25,06,150,,0*60\r\n'
b'$GPGSV,2,2,07,25,06,150,,27,01,271,,46,17,246,,0*53\r\n'
b'$GLGSV,2,1,06,65,52,328,19,66,04,287,09,75,34,150,25,81,19,326,24,1*7E\r\n'
b'$GLGSV,2,2,06,87,20,224,15,88,34,270,32,1*70\r\n'
b'$GLGSV,1,1,04,71,10,087,,72,49,053,,73,16,030,,74,47,075,,0*79\r\n'
b'$GAGSV,1,1,02,07,64,302,30,13,28,202,27,7*7B\r\n'
b'$GAGSV,1,1,03,03,03,079,,25,08,034,,33,19,320,,0*48\r\n'
b'$GBGSV,1,1,04,20,17,294,35,23,49,138,39,30,18,256,19,32,67,328,25,1*7E\r\n'
b'$GNGLL,4048.50911,N,07357.71652,W,173952.00,A,D*6E\r\n'
b'$GNRMC,173953.00,A,4048.50913,N,07357.71653,W,0.132,,291021,,,D,V*06\r\n'
b'$GNVTG,,T,,M,0.132,N,0.245,K,D*3B\r\n'
b'$GNGGA,173953.00,4048.50913,N,07357.71653,W,2,12,0.98,300.2,M,-34.4,M,,0000*72\r\n'
b'$GNGSA,A,3,23,44,32,10,12,18,,,,,,,1.68,0.98,1.36,1*00\r\n'
b'$GNGSA,A,3,87,65,81,88,,,,,,,,,1.68,0.98,1.36,2*0D\r\n'
b'$GNGSA,A,3,07,13,,,,,,,,,,,1.68,0.98,1.36,3*0C\r\n'
b'$GNGSA,A,3,20,23,32,30,,,,,,,,,1.68,0.98,1.36,4*0F\r\n'
b'$GPGSV,2,1,07,10,67,321,26,12,14,120,36,15,16,074,22,18,26,185,34,1*62\r\n'
b'$GPGSV,2,2,07,23,73,104,39,32,38,270,35,44,26,235,30,1*53\r\n'
b'$GPGSV,1,1,02,12,14,120,16,32,38,270,12,6*6F\r\n'
b'$GPGSV,2,1,07,08,01,298,,21,03,329,,24,52,061,,25,06,150,,0*60\r\n'
b'$GPGSV,2,2,07,25,06,150,,27,01,271,,46,17,246,,0*53\r\n'
b'$GLGSV,2,1,06,65,52,328,20,66,04,287,08,75,34,150,22,81,19,326,26,1*70\r\n'
b'$GLGSV,2,2,06,87,20,224,15,88,34,270,31,1*73\r\n'
b'$GLGSV,1,1,04,71,10,087,,72,49,053,,73,16,030,,74,47,075,,0*79\r\n'
b'$GAGSV,1,1,02,07,64,302,30,13,28,202,28,7*74\r\n'
b'$GAGSV,1,1,03,03,03,079,,25,08,034,,33,19,320,,0*48\r\n'
b'$GBGSV,1,1,04,20,17,294,35,23,49,138,39,30,18,256,20,32,67,328,26,1*77\r\n'
b'$GNGLL,4048.50913,N,07357.71653,W,173953.00,A,D*6C\r\n'
b'$GNRMC,173954.00,A,4048.50911,N,07357.71653,W,0.123,,291021,,,D,V*03\r\n'
b'$GNVTG,,T,,M,0.123,N,0.228,K,D*30\r\n'
b'$GNGGA,173954.00,4048.50911,N,07357.71653,W,2,12,0.99,300.2,M,-34.4,M,,0000*76\r\n'
b'$GNGSA,A,3,23,44,32,10,12,18,,,,,,,1.68,0.99,1.36,1*01\r\n'
b'$GNGSA,A,3,87,65,81,88,,,,,,,,,1.68,0.99,1.36,2*0C\r\n'
b'$GNGSA,A,3,07,13,,,,,,,,,,,1.68,0.99,1.36,3*0D\r\n'
b'$GNGSA,A,3,20,23,32,30,,,,,,,,,1.68,0.99,1.36,4*0E\r\n'
b'$GPGSV,2,1,07,10,67,321,25,12,14,120,33,15,16,074,20,18,26,185,35,1*67\r\n'
b'$GPGSV,2,2,07,23,73,104,40,32,38,270,36,44,26,235,30,1*5E\r\n'
b'$GPGSV,1,1,02,12,14,120,15,32,38,270,12,6*6C\r\n'
b'$GPGSV,2,1,07,08,01,298,,21,03,329,,24,52,061,,25,06,150,,0*60\r\n'
b'$GPGSV,2,2,07,25,06,150,,27,01,271,,46,17,246,,0*53\r\n'
b'$GLGSV,2,1,06,65,52,328,20,66,04,287,08,75,34,150,23,81,19,326,25,1*72\r\n'
b'$GLGSV,2,2,06,87,20,224,17,88,34,270,24,1*75\r\n'
b'$GLGSV,1,1,04,71,10,087,,72,49,053,,73,16,030,,74,47,075,,0*79\r\n'
b'$GAGSV,1,1,02,07,64,302,30,13,28,202,28,7*74\r\n'
b'$GAGSV,1,1,03,03,03,079,,25,08,034,,33,19,320,,0*48\r\n'
b'$GBGSV,1,1,04,20,17,294,32,23,49,138,37,30,18,256,21,32,67,328,27,1*7E\r\n'
b'$GNGLL,4048.50911,N,07357.71653,W,173954.00,A,D*69\r\n'
b'$GNRMC,173955.00,A,4048.50911,N,07357.71654,W,0.100,,291021,,,D,V*04\r\n'
b'$GNVTG,,T,,M,0.100,N,0.186,K,D*36\r\n'
b'$GNGGA,173955.00,4048.50911,N,07357.71654,W,2,12,0.99,300.2,M,-34.4,M,,0000*70\r\n'
b'$GNGSA,A,3,23,44,32,10,12,18,,,,,,,1.68,0.99,1.36,1*01\r\n'
b'$GNGSA,A,3,87,65,81,88,,,,,,,,,1.68,0.99,1.36,2*0C\r\n'
b'$GNGSA,A,3,07,13,,,,,,,,,,,1.68,0.99,1.36,3*0D\r\n'
b'$GNGSA,A,3,20,23,32,30,,,,,,,,,1.68,0.99,1.36,4*0E\r\n'
b'$GPGSV,2,1,08,10,67,321,30,12,14,120,33,15,16,074,19,18,26,185,36,1*65\r\n'
b'$GPGSV,2,2,08,23,73,104,40,24,52,061,20,32,38,270,36,44,26,235,29,1*6D\r\n'
b'$GPGSV,1,1,02,12,14,120,15,32,38,270,13,6*6D\r\n'
b'$GPGSV,2,1,06,08,01,298,,21,03,329,,25,06,150,,27,01,271,,0*67\r\n'
b'$GPGSV,2,2,06,27,01,271,,46,17,246,,0*67\r\n'
b'$GLGSV,2,1,06,65,52,328,21,66,04,287,07,75,34,150,21,81,19,326,25,1*7E\r\n'
b'$GLGSV,2,2,06,87,20,224,15,88,34,270,26,1*75\r\n'
b'$GLGSV,1,1,04,71,10,087,,72,49,053,,73,16,030,,74,47,075,,0*79\r\n'
b'$GAGSV,1,1,02,07,64,302,29,13,28,202,28,7*7C\r\n'
b'$GAGSV,1,1,03,03,03,079,,25,08,034,,33,19,320,,0*48\r\n'
b'$GBGSV,1,1,04,20,17,294,34,23,49,138,37,30,18,256,22,32,67,328,27,1*7B\r\n'
b'$GNGLL,4048.50911,N,07357.71654,W,173955.00,A,D*6F\r\n'
b'$GNRMC,173956.00,A,4048.50911,N,07357.71653,W,0.082,,291021,,,D,V*0B\r\n'
b'$GNVTG,,T,,M,0.082,N,0.152,K,D*34\r\n'
b'$GNGGA,173956.00,4048.50911,N,07357.71653,W,2,12,0.99,300.2,M,-34.4,M,,0000*74\r\n'
b'$GNGSA,A,3,23,44,32,10,12,18,,,,,,,1.68,0.99,1.36,1*01\r\n'
b'$GNGSA,A,3,87,65,81,88,,,,,,,,,1.68,0.99,1.36,2*0C\r\n'
b'$GNGSA,A,3,07,13,,,,,,,,,,,1.68,0.99,1.36,3*0D\r\n'
b'$GNGSA,A,3,20,23,32,30,,,,,,,,,1.68,0.99,1.36,4*0E\r\n'
b'$GPGSV,2,1,08,10,67,321,31,12,14,120,34,15,16,074,19,18,26,185,36,1*63\r\n'
b'$GPGSV,2,2,08,23,72,106,40,24,52,061,19,32,38,270,36,44,26,235,28,1*65\r\n'
b'$GPGSV,1,1,02,12,14,120,15,32,38,270,10,6*6E\r\n'
b'$GPGSV,2,1,06,08,01,298,,21,03,329,,25,06,150,,27,01,271,,0*67\r\n'
b'$GPGSV,2,2,06,27,01,271,,46,17,246,,0*67\r\n'
b'$GLGSV,2,1,05,65,52,328,22,75,34,150,20,81,19,326,25,87,20,224,13,1*7A\r\n'
b'$GLGSV,2,2,05,88,34,270,27,1*4A\r\n'
b'$GLGSV,2,1,05,66,04,287,,71,10,087,,72,49,053,,73,16,030,,0*70\r\n'
b'$GLGSV,2,2,05,73,16,030,,0*4C\r\n'
b'$GAGSV,1,1,02,07,64,302,27,13,28,202,29,7*73\r\n'
b'$GAGSV,1,1,03,03,03,079,,25,08,034,,33,19,320,,0*48\r\n'
b'$GBGSV,1,1,04,20,17,294,35,23,49,138,37,30,18,256,20,32,67,328,28,1*77\r\n'
b'$GNGLL,4048.50911,N,07357.71653,W,173956.00,A,D*6B\r\n'
b'$GNRMC,173957.00,A,4048.50911,N,07357.71651,W,0.076,,291021,,,D,V*03\r\n'
b'$GNVTG,,T,,M,0.076,N,0.141,K,D*3D\r\n'
b'$GNGGA,173957.00,4048.50911,N,07357.71651,W,2,12,0.99,300.2,M,-34.4,M,,0000*77\r\n'
b'$GNGSA,A,3,23,44,32,10,12,18,,,,,,,1.68,0.99,1.36,1*01\r\n'
b'$GNGSA,A,3,87,65,81,88,,,,,,,,,1.68,0.99,1.36,2*0C\r\n'
b'$GNGSA,A,3,07,13,,,,,,,,,,,1.68,0.99,1.36,3*0D\r\n'
b'$GNGSA,A,3,20,23,32,30,,,,,,,,,1.68,0.99,1.36,4*0E\r\n'
b'$GPGSV,2,1,08,10,67,321,29,12,14,120,33,15,16,074,18,18,26,185,36,1*6C\r\n'
b'$GPGSV,2,2,08,23,72,106,39,24,52,060,18,32,38,270,35,44,26,235,29,1*69\r\n'
b'$GPGSV,1,1,02,12,14,120,15,32,38,270,12,6*6C\r\n'
b'$GPGSV,2,1,06,08,01,298,,21,03,329,,25,06,150,,27,01,271,,0*67\r\n'
b'$GPGSV,2,2,06,27,01,271,,46,17,246,,0*67\r\n'
b'$GLGSV,2,1,06,65,52,328,22,72,49,053,23,75,34,150,20,81,19,326,25,1*7D\r\n'
b'$GLGSV,2,2,06,87,20,224,11,88,34,270,30,1*76\r\n'
b'$GLGSV,1,1,04,66,04,287,,71,10,087,,73,16,030,,74,47,075,,0*7E\r\n'
b'$GAGSV,1,1,02,07,64,302,28,13,28,202,28,7*7D\r\n'
b'$GAGSV,1,1,03,03,03,079,,25,08,034,,33,19,320,,0*48\r\n'
b'$GBGSV,1,1,04,20,17,294,35,23,49,138,37,30,18,256,18,32,67,328,28,1*7C\r\n'
b'$GNGLL,4048.50911,N,07357.71651,W,173957.00,A,D*68\r\n'
b'$GNRMC,173958.00,A,4048.50909,N,07357.71649,W,0.093,,291021,,,D,V*07\r\n'
b'$GNVTG,,T,,M,0.093,N,0.173,K,D*37\r\n'
b'$GNGGA,173958.00,4048.50909,N,07357.71649,W,2,12,1.00,300.3,M,-34.4,M,,0000*78\r\n'
b'$GNGSA,A,3,23,44,32,10,12,18,,,,,,,1.69,1.00,1.36,1*01\r\n'
b'$GNGSA,A,3,87,65,81,88,,,,,,,,,1.69,1.00,1.36,2*0C\r\n'
b'$GNGSA,A,3,07,13,,,,,,,,,,,1.69,1.00,1.36,3*0D\r\n'
b'$GNGSA,A,3,20,23,32,30,,,,,,,,,1.69,1.00,1.36,4*0E\r\n'
b'$GPGSV,2,1,08,10,67,321,19,12,14,120,33,15,16,074,18,18,26,185,35,1*6C\r\n'
b'$GPGSV,2,2,08,23,72,106,40,24,52,060,18,32,38,270,33,44,26,235,28,1*60\r\n'
b'$GPGSV,1,1,02,12,14,120,15,32,38,270,12,6*6C\r\n'
b'$GPGSV,2,1,06,08,01,298,,21,03,329,,25,07,150,,27,01,271,,0*66\r\n'
b'$GPGSV,2,2,06,27,01,271,,46,17,246,,0*67\r\n'
b'$GLGSV,2,1,06,65,52,328,21,72,49,053,24,75,34,150,18,81,19,326,24,1*73\r\n'
b'$GLGSV,2,2,06,87,20,224,15,88,34,270,30,1*72\r\n'
b'$GLGSV,1,1,04,66,04,287,,71,10,087,,73,16,030,,74,47,075,,0*7E\r\n'
b'$GAGSV,1,1,02,07,64,302,31,13,28,202,29,7*74\r\n'
b'$GAGSV,1,1,03,03,03,079,,25,08,034,,33,19,320,,0*48\r\n'
b'$GBGSV,1,1,04,20,17,294,35,23,49,138,40,30,18,256,21,32,67,328,27,1*79\r\n'
b'$GNGLL,4048.50909,N,07357.71649,W,173958.00,A,D*67\r\n'
b'$GNRMC,173959.00,A,4048.50911,N,07357.71645,W,0.013,,291021,,,D,V*0B\r\n'
b'$GNVTG,,T,,M,0.013,N,0.023,K,D*3B\r\n'
b'$GNGGA,173959.00,4048.50911,N,07357.71645,W,2,12,1.01,300.3,M,-34.4,M,,0000*7D\r\n'
b'$GNGSA,A,3,23,44,32,10,12,18,,,,,,,1.72,1.01,1.39,1*05\r\n'
b'$GNGSA,A,3,87,65,88,,,,,,,,,,1.72,1.01,1.39,2*01\r\n'
b'$GNGSA,A,3,07,13,,,,,,,,,,,1.72,1.01,1.39,3*09\r\n'
b'$GNGSA,A,3,20,23,32,30,,,,,,,,,1.72,1.01,1.39,4*0A\r\n'
b'$GPGSV,2,1,08,10,67,321,21,12,14,120,32,15,16,074,17,18,26,185,34,1*68\r\n'
b'$GPGSV,2,2,08,23,72,106,40,24,52,060,18,32,38,270,31,44,26,235,29,1*63\r\n'
b'$GPGSV,1,1,02,12,14,120,15,32,38,270,13,6*6D\r\n'
b'$GPGSV,2,1,06,08,01,298,,21,03,329,,25,07,150,,27,01,271,,0*66\r\n'
b'$GPGSV,2,2,06,27,01,271,,46,17,246,,0*67\r\n'
b'$GLGSV,2,1,06,65,52,328,20,72,49,053,23,75,34,150,17,81,19,326,24,1*7A\r\n'
b'$GLGSV,2,2,06,87,20,224,17,88,34,270,31,1*71\r\n'
b'$GLGSV,1,1,04,66,04,287,,71,10,087,,73,16,030,,74,47,075,,0*7E\r\n'
b'$GAGSV,1,1,02,07,64,302,31,13,28,202,29,7*74\r\n'
b'$GAGSV,1,1,03,03,03,079,,25,08,034,,33,19,320,,0*48\r\n'
b'$GBGSV,1,1,04,20,17,294,35,23,49,138,40,30,18,256,24,32,67,328,27,1*7C\r\n'
b'$GNGLL,4048.50911,N,07357.71645,W,173959.00,A,D*63\r\n'
b'$GNRMC,174000.00,A,4048.50913,N,07357.71640,W,0.015,,291021,,,D,V*08\r\n'
b'$GNVTG,,T,,M,0.015,N,0.029,K,D*37\r\n'
b'$GNGGA,174000.00,4048.50913,N,07357.71640,W,2,12,1.01,300.4,M,-34.4,M,,0000*7F\r\n'
b'$GNGSA,A,3,23,44,32,10,12,18,,,,,,,1.72,1.01,1.39,1*05\r\n'
b'$GNGSA,A,3,87,65,88,,,,,,,,,,1.72,1.01,1.39,2*01\r\n'
b'$GNGSA,A,3,07,13,,,,,,,,,,,1.72,1.01,1.39,3*09\r\n'
b'$GNGSA,A,3,20,23,32,30,,,,,,,,,1.72,1.01,1.39,4*0A\r\n'
b'$GPGSV,2,1,08,10,67,321,23,12,14,120,30,15,16,074,14,18,26,185,34,1*6B\r\n'
b'$GPGSV,2,2,08,23,72,106,40,24,52,060,18,32,38,270,31,44,26,235,30,1*6B\r\n'
b'$GPGSV,1,1,02,12,14,120,15,32,38,270,14,6*6A\r\n'
b'$GPGSV,2,1,06,08,01,298,,21,03,329,,25,07,150,,27,01,270,,0*67\r\n'
b'$GPGSV,2,2,06,27,01,270,,46,17,246,,0*66\r\n'
b'$GLGSV,2,1,07,65,52,328,21,71,10,087,24,72,49,053,22,75,34,150,15,1*77\r\n'
b'$GLGSV,2,2,07,81,19,326,22,87,20,224,14,88,34,270,33,1*47\r\n'
b'$GLGSV,1,1,03,66,04,287,,73,16,030,,74,47,075,,0*41\r\n'
b'$GAGSV,1,1,02,07,64,302,32,13,28,202,29,7*77\r\n'
b'$GAGSV,1,1,03,03,03,079,,25,08,034,,33,19,320,,0*48\r\n'
b'$GBGSV,1,1,04,20,17,294,34,23,49,138,38,30,18,256,24,32,67,328,28,1*7D\r\n'
b'$GNGLL,4048.50913,N,07357.71640,W,174000.00,A,D*66\r\n'
b'$GNRMC,174001.00,A,4048.50914,N,07357.71633,W,0.109,,291021,,,D,V*06\r\n'
b'$GNVTG,,T,,M,0.109,N,0.202,K,D*30\r\n'
b'$GNGGA,174001.00,4048.50914,N,07357.71633,W,2,12,1.01,300.5,M,-34.4,M,,0000*7C\r\n'
b'$GNGSA,A,3,23,44,32,10,12,18,,,,,,,1.72,1.01,1.39,1*05\r\n'
b'$GNGSA,A,3,87,65,88,,,,,,,,,,1.72,1.01,1.39,2*01\r\n'
b'$GNGSA,A,3,07,13,,,,,,,,,,,1.72,1.01,1.39,3*09\r\n'
b'$GNGSA,A,3,20,23,32,30,,,,,,,,,1.72,1.01,1.39,4*0A\r\n'
b'$GPGSV,2,1,08,10,67,321,24,12,14,120,27,15,16,074,10,18,26,185,33,1*69\r\n'
b'$GPGSV,2,2,08,23,72,106,38,24,52,060,19,32,38,270,32,44,26,235,29,1*6E\r\n'
b'$GPGSV,1,1,02,12,14,120,14,32,38,270,12,6*6D\r\n'
b'$GPGSV,2,1,06,08,01,298,,21,03,329,,25,07,150,,27,01,270,,0*67\r\n'
b'$GPGSV,2,2,06,27,01,270,,46,17,246,,0*66\r\n'
b'$GLGSV,2,1,07,65,52,328,20,71,10,087,24,72,49,053,20,75,34,150,15,1*74\r\n'
b'$GLGSV,2,2,07,81,19,326,20,87,20,224,20,88,34,270,33,1*42\r\n'
b'$GLGSV,1,1,03,66,04,287,,73,16,030,,74,47,075,,0*41\r\n'
b'$GAGSV,1,1,02,07,64,302,32,13,28,202,29,7*77\r\n'
b'$GAGSV,1,1,03,03,03,079,,25,08,034,,33,19,320,,0*48\r\n'
b'$GBGSV,1,1,04,20,17,294,33,23,49,138,37,30,18,256,24,32,67,328,30,1*7C\r\n'
b'$GNGLL,4048.50914,N,07357.71633,W,174001.00,A,D*64\r\n'
b'$GNRMC,174002.00,A,4048.50915,N,07357.71630,W,0.115,,291021,,,D,V*0A\r\n'
b'$GNVTG,,T,,M,0.115,N,0.212,K,D*3C\r\n'
b'$GNGGA,174002.00,4048.50915,N,07357.71630,W,2,12,1.01,300.5,M,-34.4,M,,0000*7D\r\n'
b'$GNGSA,A,3,23,44,32,10,12,18,,,,,,,1.72,1.01,1.39,1*05\r\n'
b'$GNGSA,A,3,87,65,88,,,,,,,,,,1.72,1.01,1.39,2*01\r\n'
b'$GNGSA,A,3,07,13,,,,,,,,,,,1.72,1.01,1.39,3*09\r\n'
b'$GNGSA,A,3,20,23,32,30,,,,,,,,,1.72,1.01,1.39,4*0A\r\n'
b'$GPGSV,2,1,08,10,67,321,24,12,14,120,26,15,16,074,08,18,26,185,34,1*66\r\n'
b'$GPGSV,2,2,08,23,72,106,38,24,52,060,20,32,38,270,32,44,26,235,29,1*64\r\n'
b'$GPGSV,1,1,02,12,14,120,14,32,38,270,14,6*6B\r\n'
b'$GPGSV,2,1,06,08,01,298,,21,03,329,,25,07,150,,27,01,270,,0*67\r\n'
b'$GPGSV,2,2,06,27,01,270,,46,17,246,,0*66\r\n'
b'$GLGSV,2,1,07,65,52,328,19,71,10,087,23,72,49,053,18,75,34,150,17,1*70\r\n'
b'$GLGSV,2,2,07,81,19,326,18,87,20,224,15,88,34,270,33,1*4F\r\n'
b'$GLGSV,1,1,03,66,04,287,,73,16,030,,74,47,075,,0*41\r\n'
b'$GAGSV,1,1,02,07,64,302,32,13,28,202,29,7*77\r\n'
b'$GAGSV,1,1,03,03,03,079,,25,08,034,,33,19,320,,0*48\r\n'
b'$GBGSV,1,1,04,20,17,294,33,23,49,138,38,30,18,256,24,32,67,328,30,1*73\r\n'
b'$GBGSV,1,1,01,32,67,328,17,3*4A\r\n'
b'$GNGLL,4048.50915,N,07357.71630,W,174002.00,A,D*65\r\n'
b'$GNRMC,174003.00,A,4048.50916,N,07357.71626,W,0.052,,291021,,,D,V*0D\r\n'
b'$GNVTG,,T,,M,0.052,N,0.096,K,D*30\r\n'
b'$GNGGA,174003.00,4048.50916,N,07357.71626,W,2,12,1.01,300.6,M,-34.4,M,,0000*7B\r\n'
b'$GNGSA,A,3,23,44,32,10,12,18,,,,,,,1.72,1.01,1.39,1*05\r\n'
b'$GNGSA,A,3,87,65,88,,,,,,,,,,1.72,1.01,1.39,2*01\r\n'
b'$GNGSA,A,3,07,13,,,,,,,,,,,1.72,1.01,1.39,3*09\r\n'
b'$GNGSA,A,3,20,23,32,30,,,,,,,,,1.72,1.01,1.39,4*0A\r\n'
b'$GPGSV,2,1,07,10,67,321,23,12,14,120,27,18,26,185,34,23,72,106,39,1*6E\r\n'
b'$GPGSV,2,2,07,24,52,060,21,32,38,270,32,44,26,235,29,1*52\r\n'
b'$GPGSV,1,1,02,12,14,120,11,32,38,270,14,6*6E\r\n'
b'$GPGSV,2,1,07,08,01,298,,15,16,074,,21,03,329,,25,07,150,,0*67\r\n'
b'$GPGSV,2,2,07,25,07,150,,27,01,270,,46,17,246,,0*53\r\n'
b'$GLGSV,2,1,07,65,52,328,19,71,10,087,22,72,49,053,14,75,34,150,19,1*73\r\n'
b'$GLGSV,2,2,07,81,19,326,14,87,20,224,19,88,34,270,32,1*4E\r\n'
b'$GLGSV,1,1,03,66,04,287,,73,16,030,,74,47,075,,0*41\r\n'
b'$GAGSV,1,1,02,07,64,302,32,13,28,202,29,7*77\r\n'
b'$GAGSV,1,1,03,03,03,079,,25,08,034,,33,19,320,,0*48\r\n'
b'$GBGSV,1,1,04,20,17,294,33,23,49,138,38,30,18,256,24,32,67,328,30,1*73\r\n'
b'$GBGSV,1,1,01,32,67,328,15,3*48\r\n'
b'$GNGLL,4048.50916,N,07357.71626,W,174003.00,A,D*60\r\n'
b'$GNRMC,174004.00,A,4048.50917,N,07357.71620,W,0.065,,291021,,,D,V*09\r\n'
b'$GNVTG,,T,,M,0.065,N,0.120,K,D*38\r\n'
b'$GNGGA,174004.00,4048.50917,N,07357.71620,W,2,12,1.01,300.7,M,-34.4,M,,0000*7A\r\n'
b'$GNGSA,A,3,23,44,32,10,12,18,,,,,,,1.72,1.01,1.39,1*05\r\n'
b'$GNGSA,A,3,87,65,88,,,,,,,,,,1.72,1.01,1.39,2*01\r\n'
b'$GNGSA,A,3,07,13,,,,,,,,,,,1.72,1.01,1.39,3*09\r\n'
b'$GNGSA,A,3,20,23,32,30,,,,,,,,,1.72,1.01,1.39,4*0A\r\n'
b'$GPGSV,2,1,07,10,67,321,23,12,14,120,27,18,26,185,34,23,72,106,38,1*6F\r\n'
b'$GPGSV,2,2,07,24,52,060,21,32,39,270,32,44,26,235,29,1*53\r\n'
b'$GPGSV,1,1,01,32,39,270,15,6*58\r\n'
b'$GPGSV,2,1,07,08,01,298,,15,16,074,,21,03,329,,25,07,150,,0*67\r\n'
b'$GPGSV,2,2,07,25,07,150,,27,01,270,,46,17,246,,0*53\r\n'
b'$GLGSV,2,1,07,65,52,328,18,71,10,087,21,72,49,053,13,75,34,150,19,1*76\r\n'
b'$GLGSV,2,2,07,81,19,326,12,87,20,224,20,88,34,270,33,1*43\r\n'
b'$GLGSV,1,1,03,66,04,287,,73,16,030,,74,47,075,,0*41\r\n'
b'$GAGSV,1,1,02,07,64,302,32,13,28,202,29,7*77\r\n'
b'$GAGSV,1,1,03,03,03,079,,25,08,034,,33,19,320,,0*48\r\n'
b'$GBGSV,1,1,04,20,17,294,33,23,49,138,38,30,18,256,23,32,67,328,30,1*74\r\n'
b'$GBGSV,1,1,01,32,67,328,12,3*4F\r\n'
b'$GNGLL,4048.50917,N,07357.71620,W,174004.00,A,D*60\r\n'
b'$GNRMC,174005.00,A,4048.50915,N,07357.71614,W,0.069,,291021,,,D,V*01\r\n'
b'$GNVTG,,T,,M,0.069,N,0.129,K,D*3D\r\n'
b'$GNGGA,174005.00,4048.50915,N,07357.71614,W,2,12,1.01,300.8,M,-34.4,M,,0000*71\r\n'
b'$GNGSA,A,3,23,44,32,10,12,18,,,,,,,1.72,1.01,1.39,1*05\r\n'
b'$GNGSA,A,3,87,65,81,88,,,,,,,,,1.72,1.01,1.39,2*08\r\n'
b'$GNGSA,A,3,07,13,,,,,,,,,,,1.72,1.01,1.39,3*09\r\n'
b'$GNGSA,A,3,20,23,32,30,,,,,,,,,1.72,1.01,1.39,4*0A\r\n'
b'$GPGSV,2,1,07,10,67,321,23,12,14,120,29,18,26,185,33,23,72,106,37,1*69\r\n'
b'$GPGSV,2,2,07,24,52,060,22,32,39,270,33,44,26,235,29,1*51\r\n'
b'$GPGSV,1,1,01,32,39,270,16,6*5B\r\n'
b'$GPGSV,2,1,07,08,01,298,,15,16,074,,21,03,329,,25,07,150,,0*67\r\n'
b'$GPGSV,2,2,07,25,07,150,,27,01,270,,46,17,246,,0*53\r\n'
b'$GLGSV,2,1,07,65,52,328,18,71,10,087,21,72,49,053,14,75,34,150,21,1*7A\r\n'
b'$GLGSV,2,2,07,81,19,326,13,87,20,224,20,88,34,270,31,1*40\r\n'
b'$GLGSV,1,1,03,66,04,287,,73,16,030,,74,47,075,,0*41\r\n'
b'$GAGSV,1,1,02,07,64,302,26,13,28,202,29,7*72\r\n'
b'$GAGSV,1,1,03,03,03,079,,25,08,034,,33,19,320,,0*48\r\n'
b'$GBGSV,1,1,04,20,17,294,33,23,49,138,37,30,18,256,21,32,67,328,31,1*78\r\n'
b'$GBGSV,1,1,01,32,67,328,09,3*45\r\n'
b'$GNGLL,4048.50915,N,07357.71614,W,174005.00,A,D*64\r\n'
b'$GNRMC,174006.00,A,4048.50914,N,07357.71615,W,0.092,,291021,,,D,V*06\r\n'
b'$GNVTG,,T,,M,0.092,N,0.170,K,D*35\r\n'
b'$GNGGA,174006.00,4048.50914,N,07357.71615,W,2,12,1.02,300.9,M,-34.4,M,,0000*70\r\n'
b'$GNGSA,A,3,23,44,32,10,12,18,,,,,,,1.73,1.02,1.39,1*07\r\n'
b'$GNGSA,A,3,87,65,81,88,,,,,,,,,1.73,1.02,1.39,2*0A\r\n'
b'$GNGSA,A,3,07,13,,,,,,,,,,,1.73,1.02,1.39,3*0B\r\n'
b'$GNGSA,A,3,20,23,32,30,,,,,,,,,1.73,1.02,1.39,4*08\r\n'
b'$GPGSV,2,1,07,10,67,321,24,12,14,120,30,18,26,185,32,23,72,106,38,1*68\r\n'
b'$GPGSV,2,2,07,24,52,060,22,32,39,270,34,44,26,235,29,1*56\r\n'
b'$GPGSV,1,1,01,32,39,270,16,6*5B\r\n'
b'$GPGSV,2,1,07,08,01,298,,15,16,074,,21,03,329,,25,07,150,,0*67\r\n'
b'$GPGSV,2,2,07,25,07,150,,27,01,270,,46,17,246,,0*53\r\n'
b'$GLGSV,2,1,07,65,52,328,17,71,10,087,21,72,49,053,16,75,34,150,23,1*75\r\n'
b'$GLGSV,2,2,07,81,19,326,13,87,20,224,20,88,34,270,28,1*48\r\n'
b'$GLGSV,1,1,03,66,04,287,,73,16,030,,74,47,075,,0*41\r\n'
b'$GAGSV,1,1,02,07,64,302,32,13,28,202,29,7*77\r\n'
b'$GAGSV,1,1,03,03,03,079,,25,08,034,,33,19,320,,0*48\r\n'
b'$GBGSV,1,1,04,20,17,294,34,23,49,138,36,30,18,256,18,32,67,328,31,1*74\r\n'
b'$GBGSV,1,1,01,32,67,328,07,3*4B\r\n'
b'$GNGLL,4048.50914,N,07357.71615,W,174006.00,A,D*67\r\n'
b'$GNRMC,174007.00,A,4048.50914,N,07357.71613,W,0.036,,291021,,,D,V*0F\r\n'
b'$GNVTG,,T,,M,0.036,N,0.066,K,D*3D\r\n'
b'$GNGGA,174007.00,4048.50914,N,07357.71613,W,2,12,1.03,301.0,M,-34.4,M,,0000*7E\r\n'
b'$GNGSA,A,3,23,44,32,10,12,18,,,,,,,1.76,1.03,1.43,1*0E\r\n'
b'$GNGSA,A,3,87,65,81,88,,,,,,,,,1.76,1.03,1.43,2*03\r\n'
b'$GNGSA,A,3,07,13,,,,,,,,,,,1.76,1.03,1.43,3*02\r\n'
b'$GNGSA,A,3,20,23,32,30,,,,,,,,,1.76,1.03,1.43,4*01\r\n'
b'$GPGSV,2,1,07,10,67,321,20,12,14,120,28,18,26,185,31,23,72,106,39,1*67\r\n'
b'$GPGSV,2,2,07,24,52,060,21,32,39,270,34,44,26,235,28,1*54\r\n'
b'$GPGSV,1,1,01,32,39,270,15,6*58\r\n'
b'$GPGSV,2,1,07,08,01,298,,15,16,074,,21,03,329,,25,07,150,,0*67\r\n'
b'$GPGSV,2,2,07,25,07,150,,27,01,270,,46,17,246,,0*53\r\n'
b'$GLGSV,2,1,07,65,52,328,16,71,10,087,20,72,49,053,17,75,34,150,26,1*71\r\n'
b'$GLGSV,2,2,07,81,19,326,19,87,20,224,20,88,34,270,26,1*4C\r\n'
b'$GLGSV,1,1,03,66,04,287,,73,16,030,,74,47,075,,0*41\r\n'
b'$GAGSV,1,1,02,07,64,302,26,13,28,202,30,7*7A\r\n'
b'$GAGSV,1,1,03,03,03,079,,25,08,034,,33,19,320,,0*48\r\n'
b'$GBGSV,1,1,04,20,17,294,35,23,49,138,36,30,18,256,18,32,67,328,30,1*74\r\n'
b'$GBGSV,1,1,01,32,67,328,07,3*4B\r\n'
b'$GNGLL,4048.50914,N,07357.71613,W,174007.00,A,D*60\r\n'
b'$GNRMC,174008.00,A,4048.50915,N,07357.71610,W,0.085,,291021,,,D,V*0A\r\n'
b'$GNVTG,,T,,M,0.085,N,0.158,K,D*39\r\n'
b'$GNGGA,174008.00,4048.50915,N,07357.71610,W,2,12,0.87,301.1,M,-34.4,M,,0000*7F\r\n'
b'$GNGSA,A,3,23,44,32,10,12,18,,,,,,,1.50,0.87,1.22,1*00\r\n'
b'$GNGSA,A,3,87,65,81,88,,,,,,,,,1.50,0.87,1.22,2*0D\r\n'
b'$GNGSA,A,3,07,13,,,,,,,,,,,1.50,0.87,1.22,3*0C\r\n'
b'$GNGSA,A,3,20,23,32,30,,,,,,,,,1.50,0.87,1.22,4*0F\r\n'
b'$GPGSV,2,1,07,10,67,321,18,12,14,120,28,18,26,185,31,23,72,106,39,1*6C\r\n'
b'$GPGSV,2,2,07,24,52,060,20,32,39,270,35,44,26,235,30,1*5D\r\n'
b'$GPGSV,1,1,01,32,39,270,14,6*59\r\n'
b'$GPGSV,2,1,07,08,01,298,,15,16,074,,21,03,329,,25,07,150,,0*67\r\n'
b'$GPGSV,2,2,07,25,07,150,,27,01,270,,46,17,246,,0*53\r\n'
b'$GLGSV,2,1,07,65,52,328,13,71,10,087,19,72,49,053,18,75,34,150,26,1*71\r\n'
b'$GLGSV,2,2,07,81,19,326,16,87,20,224,18,88,34,270,27,1*49\r\n'
b'$GLGSV,1,1,03,66,04,287,,73,16,030,,74,47,075,,0*41\r\n'
b'$GAGSV,1,1,02,07,64,302,30,13,28,202,30,7*7D\r\n'
b'$GAGSV,1,1,03,03,03,079,,25,08,034,,33,19,320,,0*48\r\n'
b'$GBGSV,1,1,04,20,17,294,34,23,49,138,36,30,18,256,17,32,67,328,30,1*7A\r\n'
b'$GBGSV,1,1,01,32,67,328,07,3*4B\r\n'
b'$GNGLL,4048.50915,N,07357.71610,W,174008.00,A,D*6D\r\n'
b'$GNRMC,174009.00,A,4048.50917,N,07357.71609,W,0.067,,291021,,,D,V*0D\r\n'
b'$GNVTG,,T,,M,0.067,N,0.124,K,D*3E\r\n'
b'$GNGGA,174009.00,4048.50917,N,07357.71609,W,2,12,0.87,301.2,M,-34.4,M,,0000*77\r\n'
b'$GNGSA,A,3,23,44,32,10,12,18,,,,,,,1.50,0.87,1.22,1*00\r\n'
b'$GNGSA,A,3,87,65,81,88,,,,,,,,,1.50,0.87,1.22,2*0D\r\n'
b'$GNGSA,A,3,07,13,,,,,,,,,,,1.50,0.87,1.22,3*0C\r\n'
b'$GNGSA,A,3,20,23,32,30,,,,,,,,,1.50,0.87,1.22,4*0F\r\n'
b'$GPGSV,2,1,07,10,67,321,19,12,14,120,28,18,26,185,29,23,72,106,40,1*6A\r\n'
b'$GPGSV,2,2,07,24,52,060,21,32,39,270,35,44,26,235,28,1*55\r\n'
b'$GPGSV,1,1,01,32,39,270,13,6*5E\r\n'
b'$GPGSV,2,1,07,08,01,298,,15,16,074,,21,03,329,,25,07,150,,0*67\r\n'
b'$GPGSV,2,2,07,25,07,150,,27,01,270,,46,17,246,,0*53\r\n'
b'$GLGSV,2,1,07,65,52,328,12,71,10,087,16,72,49,053,19,75,34,150,26,1*7E\r\n'
b'$GLGSV,2,2,07,81,19,326,18,87,20,224,17,88,34,270,28,1*47\r\n'
b'$GLGSV,1,1,03,66,04,287,,73,16,030,,74,47,075,,0*41\r\n'
b'$GAGSV,1,1,02,07,64,302,31,13,28,202,31,7*7D\r\n'
b'$GAGSV,1,1,03,03,03,079,,25,08,034,,33,19,320,,0*48\r\n'
b'$GBGSV,1,1,04,20,17,294,31,23,49,138,34,30,18,256,15,32,67,328,30,1*7F\r\n'
b'$GBGSV,1,1,01,32,67,328,07,3*4B\r\n'
b'$GNGLL,4048.50917,N,07357.71609,W,174009.00,A,D*66\r\n'
b'$GNRMC,174010.00,A,4048.50919,N,07357.71603,W,0.021,,291021,,,D,V*03\r\n'
b'$GNVTG,,T,,M,0.021,N,0.038,K,D*30\r\n'
b'$GNGGA,174010.00,4048.50919,N,07357.71603,W,2,12,0.86,301.2,M,-34.4,M,,0000*7A\r\n'
b'$GNGSA,A,3,23,44,32,10,12,18,,,,,,,1.44,0.86,1.16,1*03\r\n'
b'$GNGSA,A,3,87,65,81,88,,,,,,,,,1.44,0.86,1.16,2*0E\r\n'
b'$GNGSA,A,3,07,13,,,,,,,,,,,1.44,0.86,1.16,3*0F\r\n'
b'$GNGSA,A,3,20,23,32,30,,,,,,,,,1.44,0.86,1.16,4*0C\r\n'
b'$GPGSV,2,1,07,10,67,321,29,12,14,120,19,18,26,185,29,23,72,106,40,1*6B\r\n'
b'$GPGSV,2,2,07,24,52,060,21,32,39,270,35,44,26,235,29,1*54\r\n'
b'$GPGSV,1,1,01,32,39,270,12,6*5F\r\n'
b'$GPGSV,2,1,07,08,01,298,,15,16,074,,21,03,329,,25,07,150,,0*67\r\n'
b'$GPGSV,2,2,07,25,07,150,,27,01,270,,46,17,246,,0*53\r\n'
b'$GLGSV,2,1,06,65,52,328,15,72,49,053,21,75,34,150,26,81,19,326,21,1*79\r\n'
b'$GLGSV,2,2,06,87,20,224,15,88,34,270,34,1*76\r\n'
b'$GLGSV,1,1,04,66,04,287,,71,10,087,,73,16,030,,74,47,075,,0*7E\r\n'
b'$GAGSV,1,1,02,07,64,302,29,13,28,202,30,7*75\r\n'
b'$GAGSV,1,1,03,03,03,079,,25,08,034,,33,19,320,,0*48\r\n'
b'$GBGSV,1,1,04,20,17,294,32,23,49,138,29,30,18,256,15,32,67,328,30,1*70\r\n'
b'$GBGSV,1,1,01,32,67,328,08,3*44\r\n'
b'$GNGLL,4048.50919,N,07357.71603,W,174010.00,A,D*6A\r\n'
b'$GNRMC,174011.00,A,4048.50923,N,07357.71595,W,0.056,,291021,,,D,V*07\r\n'
b'$GNVTG,,T,,M,0.056,N,0.103,K,D*39\r\n'
b'$GNGGA,174011.00,4048.50923,N,07357.71595,W,2,12,0.84,301.1,M,-34.4,M,,0000*7F\r\n'
b'$GNGSA,A,3,23,44,32,10,12,18,,,,,,,1.43,0.84,1.16,1*06\r\n'
b'$GNGSA,A,3,87,65,81,88,,,,,,,,,1.43,0.84,1.16,2*0B\r\n'
b'$GNGSA,A,3,07,13,,,,,,,,,,,1.43,0.84,1.16,3*0A\r\n'
b'$GNGSA,A,3,20,23,32,30,,,,,,,,,1.43,0.84,1.16,4*09\r\n'
b'$GPGSV,2,1,08,10,67,321,29,12,14,120,23,15,16,074,17,18,26,185,29,1*6C\r\n'
b'$GPGSV,2,2,08,23,72,106,40,24,52,060,20,32,39,270,35,44,26,235,29,1*6D\r\n'
b'$GPGSV,1,1,01,32,39,270,13,6*5E\r\n'
b'$GPGSV,2,1,06,08,01,298,,21,03,329,,25,07,150,,27,01,270,,0*67\r\n'
b'$GPGSV,2,2,06,27,01,270,,46,17,246,,0*66\r\n'
b'$GLGSV,2,1,06,65,52,328,17,72,49,053,21,75,34,150,27,81,19,326,22,1*79\r\n'
b'$GLGSV,2,2,06,87,20,224,15,88,34,270,32,1*70\r\n'
b'$GLGSV,1,1,04,66,04,287,,71,10,087,,73,16,030,,74,47,075,,0*7E\r\n'
b'$GAGSV,1,1,02,07,64,302,31,13,28,202,30,7*7C\r\n'
b'$GAGSV,1,1,03,03,03,079,,25,08,034,,33,19,320,,0*48\r\n'
b'$GBGSV,1,1,04,20,17,294,31,23,49,138,31,30,18,256,16,32,67,328,29,1*71\r\n'
b'$GBGSV,1,1,01,32,67,328,08,3*44\r\n'
b'$GNGLL,4048.50923,N,07357.71595,W,174011.00,A,D*6E\r\n'
b'$GNRMC,174012.00,A,4048.50926,N,07357.71583,W,0.029,,291021,,,D,V*0E\r\n'
b'$GNVTG,,T,,M,0.029,N,0.054,K,D*32\r\n'
b'$GNGGA,174012.00,4048.50926,N,07357.71583,W,2,12,1.01,301.0,M,-34.4,M,,0000*73\r\n'
b'$GNGSA,A,3,23,44,32,10,12,18,,,,,,,1.72,1.01,1.40,1*0B\r\n'
b'$GNGSA,A,3,87,65,81,88,,,,,,,,,1.72,1.01,1.40,2*06\r\n'
b'$GNGSA,A,3,07,13,,,,,,,,,,,1.72,1.01,1.40,3*07\r\n'
b'$GNGSA,A,3,20,23,32,30,,,,,,,,,1.72,1.01,1.40,4*04\r\n'
b'$GPGSV,2,1,08,10,67,321,28,12,14,120,31,15,16,074,17,18,26,185,29,1*6E\r\n'
b'$GPGSV,2,2,08,23,72,106,40,24,52,060,18,32,39,270,35,44,26,235,29,1*66\r\n'
b'$GPGSV,1,1,01,32,39,270,14,6*59\r\n'
b'$GPGSV,2,1,06,08,01,298,,21,03,329,,25,07,150,,27,01,270,,0*67\r\n'
b'$GPGSV,2,2,06,27,01,270,,46,17,246,,0*66\r\n'
b'$GLGSV,2,1,06,65,52,328,17,72,49,053,22,75,34,150,28,81,19,326,23,1*74\r\n'
b'$GLGSV,2,2,06,87,20,224,16,88,34,270,31,1*70\r\n'
b'$GLGSV,1,1,04,66,04,287,,71,10,087,,73,16,030,,74,47,075,,0*7E\r\n'
b'$GAGSV,1,1,02,07,64,302,31,13,28,202,30,7*7C\r\n'
b'$GAGSV,1,1,03,03,03,079,,25,08,034,,33,19,320,,0*48\r\n'
b'$GBGSV,1,1,04,20,17,294,33,23,49,138,35,30,18,256,19,32,67,328,29,1*78\r\n'
b'$GBGSV,1,1,01,32,67,328,08,3*44\r\n'
b'$GNGLL,4048.50926,N,07357.71583,W,174012.00,A,D*6F\r\n'
b'$GNRMC,174013.00,A,4048.50926,N,07357.71577,W,0.045,,291021,,,D,V*0E\r\n'
b'$GNVTG,,T,,M,0.045,N,0.083,K,D*32\r\n'
b'$GNGGA,174013.00,4048.50926,N,07357.71577,W,2,12,1.01,301.1,M,-34.4,M,,0000*78\r\n'
b'$GNGSA,A,3,23,44,32,10,12,18,,,,,,,1.72,1.01,1.40,1*0B\r\n'
b'$GNGSA,A,3,87,65,81,88,,,,,,,,,1.72,1.01,1.40,2*06\r\n'
b'$GNGSA,A,3,07,13,,,,,,,,,,,1.72,1.01,1.40,3*07\r\n'
b'$GNGSA,A,3,20,23,32,30,,,,,,,,,1.72,1.01,1.40,4*04\r\n'
b'$GPGSV,2,1,08,10,67,321,28,12,14,120,32,15,16,074,18,18,26,185,29,1*62\r\n'
b'$GPGSV,2,2,08,23,72,106,39,24,52,060,17,32,39,270,34,44,26,235,29,1*66\r\n'
b'$GPGSV,1,1,01,32,39,270,14,6*59\r\n'
b'$GPGSV,2,1,06,08,01,298,,21,03,329,,25,07,150,,27,01,270,,0*67\r\n'
b'$GPGSV,2,2,06,27,01,270,,46,17,246,,0*66\r\n'
b'$GLGSV,2,1,06,65,52,328,14,72,49,053,21,75,34,150,28,81,19,326,23,1*74\r\n'
b'$GLGSV,2,2,06,87,20,224,14,88,34,270,29,1*7B\r\n'
b'$GLGSV,1,1,04,66,04,287,,71,10,087,,73,16,030,,74,47,075,,0*7E\r\n'
b'$GAGSV,1,1,02,07,64,302,29,13,28,202,30,7*75\r\n'
b'$GAGSV,1,1,03,03,03,079,,25,08,034,,33,19,320,,0*48\r\n'
b'$GBGSV,1,1,04,20,17,294,35,23,49,138,36,30,18,256,22,32,67,328,29,1*75\r\n'
b'$GNGLL,4048.50926,N,07357.71577,W,174013.00,A,D*65\r\n'
b'$GNRMC,174014.00,A,4048.50927,N,07357.71574,W,0.066,,291021,,,D,V*0A\r\n'
b'$GNVTG,,T,,M,0.066,N,0.123,K,D*38\r\n'
b'$GNGGA,174014.00,4048.50927,N,07357.71574,W,2,12,1.01,301.2,M,-34.4,M,,0000*7E\r\n'
b'$GNGSA,A,3,23,44,32,10,12,18,,,,,,,1.72,1.01,1.40,1*0B\r\n'
b'$GNGSA,A,3,87,65,81,88,,,,,,,,,1.72,1.01,1.40,2*06\r\n'
b'$GNGSA,A,3,07,13,,,,,,,,,,,1.72,1.01,1.40,3*07\r\n'
b'$GNGSA,A,3,20,23,32,30,,,,,,,,,1.72,1.01,1.40,4*04\r\n'
b'$GPGSV,2,1,08,10,67,321,28,12,14,120,33,15,16,074,18,18,26,185,29,1*63\r\n'
b'$GPGSV,2,2,08,23,72,106,39,24,52,060,15,32,39,270,34,44,26,235,29,1*64\r\n'
b'$GPGSV,1,1,01,32,39,270,15,6*58\r\n'
b'$GPGSV,2,1,06,08,01,298,,21,03,329,,25,07,150,,27,01,270,,0*67\r\n'
b'$GPGSV,2,2,06,27,01,270,,46,17,246,,0*66\r\n'
b'$GLGSV,2,1,06,65,52,328,21,72,49,053,19,75,34,150,28,81,19,326,21,1*7B\r\n'
b'$GLGSV,2,2,06,87,20,224,11,88,34,270,28,1*7F\r\n'
b'$GLGSV,1,1,04,66,04,287,,71,10,087,,73,16,030,,74,47,075,,0*7E\r\n'
b'$GAGSV,1,1,02,07,64,302,33,13,28,202,30,7*7E\r\n'
b'$GAGSV,1,1,03,03,03,079,,25,08,034,,33,19,320,,0*48\r\n'
b'$GBGSV,1,1,04,20,17,294,34,23,49,138,36,30,18,256,24,32,67,328,28,1*73\r\n'
b'$GNGLL,4048.50927,N,07357.71574,W,174014.00,A,D*60\r\n'
b'$GNRMC,174015.00,A,4048.50927,N,07357.71571,W,0.041,,291021,,,D,V*0B\r\n'
b'$GNVTG,,T,,M,0.041,N,0.077,K,D*3D\r\n'
b'$GNGGA,174015.00,4048.50927,N,07357.71571,W,2,12,1.01,301.4,M,-34.4,M,,0000*7C\r\n'
b'$GNGSA,A,3,23,44,32,10,12,18,,,,,,,1.72,1.01,1.40,1*0B\r\n'
b'$GNGSA,A,3,87,65,81,88,,,,,,,,,1.72,1.01,1.40,2*06\r\n'
b'$GNGSA,A,3,07,13,,,,,,,,,,,1.72,1.01,1.40,3*07\r\n'
b'$GNGSA,A,3,20,23,32,30,,,,,,,,,1.72,1.01,1.40,4*04\r\n'
b'$GPGSV,2,1,08,10,67,321,26,12,14,120,33,15,16,074,18,18,26,185,29,1*6D\r\n'
b'$GPGSV,2,2,08,23,72,106,38,24,52,060,14,32,39,270,35,44,26,235,29,1*65\r\n'
b'$GPGSV,1,1,01,32,39,270,15,6*58\r\n'
b'$GPGSV,2,1,06,08,01,298,,21,03,329,,25,07,150,,27,01,270,,0*67\r\n'
b'$GPGSV,2,2,06,27,01,270,,46,17,246,,0*66\r\n'
b'$GLGSV,2,1,06,65,52,328,19,72,49,053,18,75,34,150,27,81,19,326,21,1*7E\r\n'
b'$GLGSV,2,2,06,87,20,224,08,88,34,270,29,1*76\r\n'
b'$GLGSV,1,1,04,66,04,287,,71,10,087,,73,16,030,,74,47,075,,0*7E\r\n'
b'$GAGSV,1,1,02,07,64,302,33,13,28,202,30,7*7E\r\n'
b'$GAGSV,1,1,03,03,03,079,,25,08,034,,33,19,320,,0*48\r\n'
b'$GBGSV,1,1,04,20,17,294,34,23,49,138,36,30,18,256,23,32,67,328,27,1*7B\r\n'
b'$GNGLL,4048.50927,N,07357.71571,W,174015.00,A,D*64\r\n'
b'$GNRMC,174016.00,A,4048.50930,N,07357.71565,W,0.030,,291021,,,D,V*0D\r\n'
b'$GNVTG,,T,,M,0.030,N,0.055,K,D*3B\r\n'
b'$GNGGA,174016.00,4048.50930,N,07357.71565,W,2,12,1.01,301.5,M,-34.4,M,,0000*7D\r\n'
b'$GNGSA,A,3,23,44,32,10,12,18,,,,,,,1.72,1.01,1.40,1*0B\r\n'
b'$GNGSA,A,3,87,65,81,88,,,,,,,,,1.72,1.01,1.40,2*06\r\n'
b'$GNGSA,A,3,07,13,,,,,,,,,,,1.72,1.01,1.40,3*07\r\n'
b'$GNGSA,A,3,20,23,32,30,,,,,,,,,1.72,1.01,1.40,4*04\r\n'
b'$GPGSV,2,1,08,10,67,321,26,12,14,120,29,15,16,074,17,18,26,185,28,1*68\r\n'
b'$GPGSV,2,2,08,23,72,106,38,24,52,060,12,32,39,270,35,44,26,235,30,1*6B\r\n'
b'$GPGSV,1,1,01,32,39,270,14,6*59\r\n'
b'$GPGSV,2,1,06,08,01,298,,21,03,329,,25,07,150,,27,01,270,,0*67\r\n'
b'$GPGSV,2,2,06,27,01,270,,46,17,246,,0*66\r\n'
b'$GLGSV,2,1,06,65,52,328,20,72,49,053,15,75,34,150,28,81,19,326,20,1*77\r\n'
b'$GLGSV,2,2,06,87,20,224,15,88,34,270,29,1*7A\r\n'
b'$GLGSV,1,1,04,66,04,287,,71,10,087,,73,16,030,,74,47,075,,0*7E\r\n'
b'$GAGSV,1,1,02,07,64,302,32,13,28,202,29,7*77\r\n'
b'$GAGSV,1,1,03,03,03,079,,25,08,034,,33,19,320,,0*48\r\n'
b'$GBGSV,1,1,04,20,17,294,33,23,49,138,35,30,18,256,23,32,67,328,28,1*70\r\n'
b'$GNGLL,4048.50930,N,07357.71565,W,174016.00,A,D*64\r\n'
b'$GNRMC,174017.00,A,4048.50934,N,07357.71553,W,0.020,,291021,,,D,V*0C\r\n'
b'$GNVTG,,T,,M,0.020,N,0.037,K,D*3E\r\n'
b'$GNGGA,174017.00,4048.50934,N,07357.71553,W,2,12,1.01,301.5,M,-34.4,M,,0000*7D\r\n'
b'$GNGSA,A,3,23,44,32,10,12,18,,,,,,,1.72,1.01,1.40,1*0B\r\n'
b'$GNGSA,A,3,87,65,81,88,,,,,,,,,1.72,1.01,1.40,2*06\r\n'
b'$GNGSA,A,3,07,13,,,,,,,,,,,1.72,1.01,1.40,3*07\r\n'
b'$GNGSA,A,3,20,23,32,30,,,,,,,,,1.72,1.01,1.40,4*04\r\n'
b'$GPGSV,2,1,08,10,67,321,26,12,14,120,33,15,16,074,15,18,26,185,28,1*61\r\n'
b'$GPGSV,2,2,08,23,72,106,39,24,52,060,12,32,39,270,36,44,26,235,30,1*69\r\n'
b'$GPGSV,1,1,01,32,39,270,14,6*59\r\n'
b'$GPGSV,2,1,06,08,01,298,,21,03,329,,25,07,150,,27,01,270,,0*67\r\n'
b'$GPGSV,2,2,06,27,01,270,,46,17,246,,0*66\r\n'
b'$GLGSV,2,1,06,65,52,328,21,72,49,053,12,75,34,150,28,81,19,326,19,1*7B\r\n'
b'$GLGSV,2,2,06,87,20,224,19,88,34,270,30,1*7E\r\n'
b'$GLGSV,1,1,04,66,04,287,,71,10,087,,73,16,030,,74,47,075,,0*7E\r\n'
b'$GAGSV,1,1,02,07,64,302,31,13,28,202,30,7*7C\r\n'
b'$GAGSV,1,1,03,03,03,079,,25,08,034,,33,19,320,,0*48\r\n'
b'$GBGSV,1,1,04,20,17,294,32,23,49,138,35,30,18,256,23,32,67,328,29,1*70\r\n'
b'$GNGLL,4048.50934,N,07357.71553,W,174017.00,A,D*64\r\n'
b'$GNRMC,174018.00,A,4048.50934,N,07357.71548,W,0.029,,291021,,,D,V*00\r\n'
b'$GNVTG,,T,,M,0.029,N,0.054,K,D*32\r\n'
b'$GNGGA,174018.00,4048.50934,N,07357.71548,W,2,12,1.01,301.6,M,-34.4,M,,0000*7B\r\n'
b'$GNGSA,A,3,23,44,32,10,12,18,,,,,,,1.72,1.01,1.40,1*0B\r\n'
b'$GNGSA,A,3,87,65,81,88,,,,,,,,,1.72,1.01,1.40,2*06\r\n'
b'$GNGSA,A,3,07,13,,,,,,,,,,,1.72,1.01,1.40,3*07\r\n'
b'$GNGSA,A,3,20,23,32,30,,,,,,,,,1.72,1.01,1.40,4*04\r\n'
b'$GPGSV,2,1,08,10,67,321,29,12,14,120,33,15,16,074,14,18,26,185,28,1*6F\r\n'
b'$GPGSV,2,2,08,23,72,106,37,24,52,060,14,32,39,270,33,44,26,235,30,1*64\r\n'
b'$GPGSV,1,1,01,32,39,270,15,6*58\r\n'
b'$GPGSV,2,1,06,08,01,298,,21,03,329,,25,07,150,,27,01,270,,0*67\r\n'
b'$GPGSV,2,2,06,27,01,270,,46,17,246,,0*66\r\n'
b'$GLGSV,2,1,06,65,52,328,21,72,49,053,09,75,34,150,27,81,19,326,19,1*7E\r\n'
b'$GLGSV,2,2,06,87,20,224,18,88,34,270,29,1*77\r\n'
b'$GLGSV,1,1,04,66,04,287,,71,10,087,,73,16,030,,74,47,075,,0*7E\r\n'
b'$GAGSV,1,1,02,07,64,302,27,13,28,202,30,7*7B\r\n'
b'$GAGSV,1,1,03,03,03,079,,25,08,034,,33,19,320,,0*48\r\n'
b'$GBGSV,1,1,04,20,17,294,32,23,49,138,35,30,18,256,24,32,67,328,29,1*77\r\n'
b'$GNGLL,4048.50934,N,07357.71548,W,174018.00,A,D*61\r\n'
b'$GNRMC,174019.00,A,4048.50934,N,07357.71543,W,0.031,,291021,,,D,V*03\r\n'
b'$GNVTG,,T,,M,0.031,N,0.057,K,D*38\r\n'
b'$GNGGA,174019.00,4048.50934,N,07357.71543,W,2,12,1.01,301.6,M,-34.4,M,,0000*71\r\n'
b'$GNGSA,A,3,23,44,32,10,12,18,,,,,,,1.72,1.01,1.40,1*0B\r\n'
b'$GNGSA,A,3,87,65,81,88,,,,,,,,,1.72,1.01,1.40,2*06\r\n'
b'$GNGSA,A,3,07,13,,,,,,,,,,,1.72,1.01,1.40,3*07\r\n'
b'$GNGSA,A,3,20,23,32,30,,,,,,,,,1.72,1.01,1.40,4*04\r\n'
b'$GPGSV,2,1,08,10,67,321,28,12,14,120,32,15,16,074,14,18,26,185,28,1*6F\r\n'
b'$GPGSV,2,2,08,23,72,106,38,24,52,060,13,32,39,270,32,44,26,235,30,1*6D\r\n'
b'$GPGSV,1,1,01,32,39,270,15,6*58\r\n'
b'$GPGSV,2,1,06,08,01,298,,21,03,329,,25,07,150,,27,01,270,,0*67\r\n'
b'$GPGSV,2,2,06,27,01,270,,46,17,246,,0*66\r\n'
b'$GLGSV,2,1,05,65,52,328,21,75,34,150,27,81,19,326,19,87,20,224,20,1*71\r\n'
b'$GLGSV,2,2,05,88,34,270,29,1*44\r\n'
b'$GLGSV,2,1,05,66,04,287,,71,10,087,,72,49,053,,73,16,030,,0*70\r\n'
b'$GLGSV,2,2,05,73,16,030,,0*4C\r\n'
b'$GAGSV,1,1,02,07,64,303,27,13,28,202,30,7*7A\r\n'
b'$GAGSV,1,1,03,03,03,079,,25,08,034,,33,19,320,,0*48\r\n'
b'$GBGSV,1,1,04,20,17,294,33,23,49,138,35,30,18,256,24,32,67,328,29,1*76\r\n'
b'$GNGLL,4048.50934,N,07357.71543,W,174019.00,A,D*6B\r\n'
b'$GNRMC,174020.00,A,4048.50932,N,07357.71541,W,0.063,,291021,,,D,V*0A\r\n'
b'$GNVTG,,T,,M,0.063,N,0.116,K,D*3B\r\n'
b'$GNGGA,174020.00,4048.50932,N,07357.71541,W,2,12,1.01,301.7,M,-34.4,M,,0000*7E\r\n'
b'$GNGSA,A,3,23,44,32,10,12,18,,,,,,,1.72,1.01,1.40,1*0B\r\n'
b'$GNGSA,A,3,87,65,81,88,,,,,,,,,1.72,1.01,1.40,2*06\r\n'
b'$GNGSA,A,3,07,13,,,,,,,,,,,1.72,1.01,1.40,3*07\r\n'
b'$GNGSA,A,3,20,23,32,30,,,,,,,,,1.72,1.01,1.40,4*04\r\n'
b'$GPGSV,2,1,08,10,67,321,28,12,14,120,31,15,16,074,14,18,26,185,28,1*6C\r\n'
b'$GPGSV,2,2,08,23,72,106,38,24,52,060,12,32,39,270,32,44,26,235,29,1*64\r\n'
b'$GPGSV,1,1,01,32,39,270,15,6*58\r\n'
b'$GPGSV,2,1,06,08,01,298,,21,03,329,,25,07,150,,27,01,270,,0*67\r\n'
b'$GPGSV,2,2,06,27,01,270,,46,17,246,,0*66\r\n'
b'$GLGSV,2,1,05,65,52,328,19,75,34,150,26,81,19,326,17,87,20,224,21,1*74\r\n'
b'$GLGSV,2,2,05,88,34,270,27,1*4A\r\n'
b'$GLGSV,2,1,05,66,04,287,,71,10,087,,72,49,053,,73,16,030,,0*70\r\n'
b'$GLGSV,2,2,05,73,16,030,,0*4C\r\n'
b'$GAGSV,1,1,02,07,64,303,26,13,28,202,29,7*73\r\n'
b'$GAGSV,1,1,03,03,03,079,,25,08,034,,33,19,320,,0*48\r\n'
b'$GBGSV,1,1,04,20,17,294,33,23,49,138,35,30,18,256,24,32,67,328,29,1*76\r\n'
b'$GNGLL,4048.50932,N,07357.71541,W,174020.00,A,D*65\r\n'
b'$GNRMC,174021.00,A,4048.50931,N,07357.71537,W,0.017,,291021,,,D,V*0A\r\n'
b'$GNVTG,,T,,M,0.017,N,0.032,K,D*3F\r\n'
b'$GNGGA,174021.00,4048.50931,N,07357.71537,W,2,12,1.01,301.8,M,-34.4,M,,0000*72\r\n'
b'$GNGSA,A,3,23,44,32,10,12,18,,,,,,,1.72,1.01,1.40,1*0B\r\n'
b'$GNGSA,A,3,87,65,81,88,,,,,,,,,1.72,1.01,1.40,2*06\r\n'
b'$GNGSA,A,3,07,13,,,,,,,,,,,1.72,1.01,1.40,3*07\r\n'
b'$GNGSA,A,3,20,23,32,30,,,,,,,,,1.72,1.01,1.40,4*04\r\n'
b'$GPGSV,2,1,08,10,67,321,29,12,14,120,33,15,16,074,14,18,26,185,33,1*65\r\n'
b'$GPGSV,2,2,08,23,72,106,38,24,52,060,10,32,39,270,33,44,26,235,29,1*67\r\n'
b'$GPGSV,1,1,01,12,14,120,14,5*51\r\n'
b'$GPGSV,1,1,01,32,39,270,16,6*5B\r\n'
b'$GPGSV,2,1,06,08,01,298,,21,03,329,,25,07,150,,27,01,270,,0*67\r\n'
b'$GPGSV,2,2,06,27,01,270,,46,17,246,,0*66\r\n'
b'$GLGSV,2,1,05,65,52,328,18,75,34,150,27,81,19,326,16,87,20,224,21,1*75\r\n'
b'$GLGSV,2,2,05,88,34,270,28,1*45\r\n'
b'$GLGSV,2,1,05,66,04,287,,71,10,087,,72,49,053,,73,16,030,,0*70\r\n'
b'$GLGSV,2,2,05,73,16,030,,0*4C\r\n'
b'$GAGSV,1,1,02,07,64,303,25,13,28,202,30,7*78\r\n'
b'$GAGSV,1,1,03,03,03,079,,25,08,034,,33,19,320,,0*48\r\n'
b'$GBGSV,1,1,04,20,17,294,32,23,49,138,36,30,18,256,25,32,67,328,29,1*75\r\n'
b'$GNGLL,4048.50931,N,07357.71537,W,174021.00,A,D*66\r\n'
b'$GNRMC,174022.00,A,4048.50929,N,07357.71536,W,0.116,,291021,,,D,V*01\r\n'
b'$GNVTG,,T,,M,0.116,N,0.214,K,D*39\r\n'
b'$GNGGA,174022.00,4048.50929,N,07357.71536,W,2,12,1.01,302.0,M,-34.4,M,,0000*72\r\n'
b'$GNGSA,A,3,23,44,32,10,12,18,,,,,,,1.72,1.01,1.40,1*0B\r\n'
b'$GNGSA,A,3,87,65,81,88,,,,,,,,,1.72,1.01,1.40,2*06\r\n'
b'$GNGSA,A,3,07,13,,,,,,,,,,,1.72,1.01,1.40,3*07\r\n'
b'$GNGSA,A,3,20,23,32,30,,,,,,,,,1.72,1.01,1.40,4*04\r\n'
b'$GPGSV,2,1,08,10,67,321,16,12,14,120,32,15,16,074,13,18,26,185,32,1*6E\r\n'
b'$GPGSV,2,2,08,23,72,106,39,24,52,060,11,32,39,270,35,44,26,235,29,1*61\r\n'
b'$GPGSV,1,1,02,12,14,120,13,32,39,270,16,6*6F\r\n'
b'$GPGSV,2,1,06,08,01,298,,21,03,329,,25,07,150,,27,01,270,,0*67\r\n'
b'$GPGSV,2,2,06,27,01,270,,46,17,246,,0*66\r\n'
b'$GLGSV,2,1,05,65,52,328,17,75,34,150,32,81,19,326,18,87,20,224,21,1*70\r\n'
b'$GLGSV,2,2,05,88,34,270,30,1*4C\r\n'
b'$GLGSV,2,1,05,66,04,287,,71,10,087,,72,49,053,,73,16,030,,0*70\r\n'
b'$GLGSV,2,2,05,73,16,030,,0*4C\r\n'
b'$GAGSV,1,1,02,07,64,303,28,13,28,202,30,7*75\r\n'
b'$GAGSV,1,1,03,03,03,079,,25,08,034,,33,19,320,,0*48\r\n'
b'$GBGSV,1,1,04,20,17,294,32,23,49,138,35,30,18,256,25,32,67,328,28,1*77\r\n'
b'$GNGLL,4048.50929,N,07357.71536,W,174022.00,A,D*6D\r\n'
b'$GNRMC,174023.00,A,4048.50929,N,07357.71535,W,0.013,,291021,,,D,V*07\r\n'
b'$GNVTG,,T,,M,0.013,N,0.024,K,D*3C\r\n'
b'$GNGGA,174023.00,4048.50929,N,07357.71535,W,2,12,1.01,302.2,M,-34.4,M,,0000*72\r\n'
b'$GNGSA,A,3,23,44,32,10,12,18,,,,,,,1.72,1.01,1.40,1*0B\r\n'
b'$GNGSA,A,3,87,65,81,88,,,,,,,,,1.72,1.01,1.40,2*06\r\n'
b'$GNGSA,A,3,07,13,,,,,,,,,,,1.72,1.01,1.40,3*07\r\n'
b'$GNGSA,A,3,20,23,32,30,,,,,,,,,1.72,1.01,1.40,4*04\r\n'
b'$GPGSV,2,1,08,10,67,321,17,12,14,120,34,15,16,074,10,18,26,185,31,1*69\r\n'
b'$GPGSV,2,2,08,23,72,106,39,24,52,060,09,32,39,270,35,44,26,235,29,1*68\r\n'
b'$GPGSV,1,1,02,12,14,120,13,32,39,270,15,6*6C\r\n'
b'$GPGSV,2,1,06,08,01,298,,21,03,329,,25,07,150,,27,01,270,,0*67\r\n'
b'$GPGSV,2,2,06,27,01,270,,46,17,246,,0*66\r\n'
b'$GLGSV,2,1,05,65,52,328,15,75,34,150,32,81,19,326,19,87,20,224,21,1*73\r\n'
b'$GLGSV,2,2,05,88,34,270,31,1*4D\r\n'
b'$GLGSV,2,1,05,66,04,287,,71,10,087,,72,49,053,,73,16,030,,0*70\r\n'
b'$GLGSV,2,2,05,73,16,030,,0*4C\r\n'
b'$GAGSV,1,1,02,07,64,303,30,13,28,202,31,7*7D\r\n'
b'$GAGSV,1,1,03,03,03,079,,25,08,034,,33,19,320,,0*48\r\n'
b'$GBGSV,1,1,04,20,17,294,31,23,49,138,35,30,18,256,24,32,67,328,29,1*74\r\n'
b'$GNGLL,4048.50929,N,07357.71535,W,174023.00,A,D*6F\r\n'
b'$GNRMC,174024.00,A,4048.50926,N,07357.71538,W,0.061,,291021,,,D,V*07\r\n'
b'$GNVTG,,T,,M,0.061,N,0.113,K,D*3C\r\n'
b'$GNGGA,174024.00,4048.50926,N,07357.71538,W,2,12,1.01,302.5,M,-34.4,M,,0000*70\r\n'
b'$GNGSA,A,3,23,44,32,10,12,18,,,,,,,1.72,1.01,1.40,1*0B\r\n'
b'$GNGSA,A,3,87,65,81,88,,,,,,,,,1.72,1.01,1.40,2*06\r\n'
b'$GNGSA,A,3,07,13,,,,,,,,,,,1.72,1.01,1.40,3*07\r\n'
b'$GNGSA,A,3,20,23,32,30,,,,,,,,,1.72,1.01,1.40,4*04\r\n'
b'$GPGSV,2,1,06,10,67,321,17,12,14,120,35,18,26,185,31,23,72,106,38,1*6F\r\n'
b'$GPGSV,2,2,06,32,39,270,34,44,26,235,29,1*60\r\n'
b'$GPGSV,1,1,02,12,14,120,14,32,39,270,15,6*6B\r\n'
b'$GPGSV,2,1,08,08,01,298,,15,16,074,,21,03,329,,24,52,060,,0*6B\r\n'
b'$GPGSV,2,2,08,24,52,060,,25,07,150,,27,01,270,,46,17,246,,0*6B\r\n'
b'$GLGSV,2,1,05,65,52,328,14,75,34,150,33,81,19,326,21,87,20,224,20,1*79\r\n'
b'$GLGSV,2,2,05,88,34,270,31,1*4D\r\n'
b'$GLGSV,2,1,05,66,04,287,,71,10,087,,72,49,053,,73,16,030,,0*70\r\n'
b'$GLGSV,2,2,05,73,16,030,,0*4C\r\n'
b'$GAGSV,1,1,02,07,64,303,30,13,28,202,31,7*7D\r\n'
b'$GAGSV,1,1,03,03,03,079,,25,08,034,,33,19,320,,0*48\r\n'
b'$GBGSV,1,1,04,20,17,294,31,23,49,138,36,30,18,256,20,32,67,328,29,1*73\r\n'
b'$GNGLL,4048.50926,N,07357.71538,W,174024.00,A,D*6A\r\n'
b'$GNRMC,174025.00,A,4048.50924,N,07357.71540,W,0.013,,291021,,,D,V*0E\r\n'
b'$GNVTG,,T,,M,0.013,N,0.023,K,D*3B\r\n'
b'$GNGGA,174025.00,4048.50924,N,07357.71540,W,2,12,1.01,302.8,M,-34.4,M,,0000*71\r\n'
b'$GNGSA,A,3,23,44,32,10,12,18,,,,,,,1.72,1.01,1.40,1*0B\r\n'
b'$GNGSA,A,3,87,65,81,88,,,,,,,,,1.72,1.01,1.40,2*06\r\n'
b'$GNGSA,A,3,07,13,,,,,,,,,,,1.72,1.01,1.40,3*07\r\n'
b'$GNGSA,A,3,20,23,32,30,,,,,,,,,1.72,1.01,1.40,4*04\r\n'
b'$GPGSV,2,1,06,10,67,321,15,12,14,120,35,18,26,185,31,23,72,106,38,1*6D\r\n'
b'$GPGSV,2,2,06,32,39,270,34,44,26,235,29,1*60\r\n'
b'$GPGSV,1,1,02,12,14,120,15,32,39,270,13,6*6C\r\n'
b'$GPGSV,2,1,08,08,01,298,,15,16,074,,21,03,329,,24,52,060,,0*6B\r\n'
b'$GPGSV,2,2,08,24,52,060,,25,07,150,,27,01,270,,46,17,246,,0*6B\r\n'
b'$GLGSV,2,1,05,65,52,328,14,75,34,150,33,81,19,326,21,87,20,224,19,1*73\r\n'
b'$GLGSV,2,2,05,88,34,270,32,1*4E\r\n'
b'$GLGSV,2,1,05,66,04,287,,71,10,087,,72,49,053,,73,16,030,,0*70\r\n'
b'$GLGSV,2,2,05,73,16,030,,0*4C\r\n'
b'$GAGSV,1,1,02,07,64,303,30,13,28,202,31,7*7D\r\n'
b'$GAGSV,1,1,03,03,03,079,,25,08,034,,33,19,319,,0*42\r\n'
b'$GBGSV,1,1,04,20,17,294,31,23,49,138,36,30,18,256,16,32,67,328,29,1*76\r\n'
b'$GNGLL,4048.50924,N,07357.71540,W,174025.00,A,D*66\r\n'
